time,x,y,z,yaw,ctrl_comp_time,x_ref,y_ref,z_ref,yaw_ref,throttle,roll_rate,pitch_rate,yaw_rate
5.000506401062012,-0.19929474592208862,0.05789337307214737,-0.022290825843811035,1.5657653423971047,0.00032329559326171875,1.0,2.0,-5.0,nan,nan,nan,nan,nan
5.0102996826171875,-0.19929474592208862,0.05789337307214737,-0.022290825843811035,1.5657653423971047,0.00033593177795410156,1.0,2.0,-5.0,nan,nan,nan,nan,nan
5.020347833633423,-0.19963490962982178,0.057356029748916626,-0.019810199737548828,1.5658371426090838,0.0003261566162109375,1.0,2.0,-5.0,nan,nan,nan,nan,nan
5.030432462692261,-0.19963490962982178,0.057356029748916626,-0.019810199737548828,1.5658371426090838,0.0003604888916015625,1.0,2.0,-5.0,nan,nan,nan,nan,nan
5.040892124176025,-0.1999962329864502,0.05680795758962631,-0.017479658126831055,1.5659543757770202,0.00035643577575683594,1.0,2.0,-5.0,nan,nan,nan,nan,nan
5.050405740737915,-0.1999962329864502,0.05680795758962631,-0.017479658126831055,1.5659543757770202,0.0003757476806640625,1.0,2.0,-5.0,nan,nan,nan,nan,nan
5.061227798461914,-0.2004852443933487,0.05600485950708389,-0.014205336570739746,1.5661242772341137,0.00037670135498046875,1.0,2.0,-5.0,nan,nan,nan,nan,nan
5.070395469665527,-0.2004852443933487,0.05600485950708389,-0.014205336570739746,1.5661242772341137,0.000354766845703125,1.0,2.0,-5.0,nan,nan,nan,nan,nan
5.080780744552612,-0.20081406831741333,0.05567266047000885,-0.011836647987365723,1.566233333839474,0.0003516674041748047,1.0,2.0,-5.0,nan,nan,nan,nan,nan
5.090380907058716,-0.20081406831741333,0.05567266047000885,-0.011836647987365723,1.566233333839474,0.0003535747528076172,1.0,2.0,-5.0,nan,nan,nan,nan,nan
5.1010003089904785,-0.201300710439682,0.05545038357377052,-0.007960200309753418,1.5663826375984258,0.00035309791564941406,1.0,2.0,-5.0,nan,nan,nan,nan,nan
5.110367298126221,-0.201300710439682,0.05545038357377052,-0.007960200309753418,1.5663826375984258,0.0006825923919677734,1.0,2.0,-5.0,nan,nan,nan,nan,nan
5.121098518371582,-0.2017091065645218,0.055200669914484024,-0.004382014274597168,1.5665148256263715,0.00034880638122558594,1.0,2.0,-5.0,nan,nan,nan,nan,nan
5.13041877746582,-0.2017091065645218,0.055200669914484024,-0.004382014274597168,1.5665148256263715,0.0003807544708251953,1.0,2.0,-5.0,nan,nan,nan,nan,nan
5.140826225280762,-0.20193971693515778,0.05501856654882431,-0.0021692514419555664,1.5666005831024843,0.00033164024353027344,1.0,2.0,-5.0,nan,nan,nan,nan,nan
5.150429010391235,-0.20193971693515778,0.05501856654882431,-0.0021692514419555664,1.5666005831024843,0.0003590583801269531,1.0,2.0,-5.0,nan,nan,nan,nan,nan
5.16028904914856,-0.2021389752626419,0.05482516810297966,-6.0558319091796875e-05,1.5666808730654431,0.0003883838653564453,1.0,2.0,-5.0,nan,nan,nan,nan,nan
5.170376539230347,-0.20223338901996613,0.05470673739910126,0.0009566545486450195,1.5667205549895962,0.0003535747528076172,1.0,2.0,-5.0,nan,nan,nan,nan,nan
5.180438756942749,-0.2023204267024994,0.05458586663007736,0.0019251704216003418,1.5667845893341288,0.00038313865661621094,1.0,2.0,-5.0,nan,nan,nan,nan,nan
5.1904284954071045,-0.2024003118276596,0.05446271970868111,0.0028710365295410156,1.5668489655766207,0.0003669261932373047,1.0,2.0,-5.0,nan,nan,nan,nan,nan
5.200558423995972,-0.2024732232093811,0.054337359964847565,0.0037947893142700195,1.5669108980212036,0.0004858970642089844,1.0,2.0,-5.0,nan,nan,nan,nan,nan
5.210306644439697,-0.20253930985927582,0.05420989170670509,0.004697024822235107,1.5669721577669524,0.00034999847412109375,1.0,2.0,-5.0,nan,nan,nan,nan,nan
5.2203497886657715,-0.20301714539527893,0.05403534322977066,0.00864487886428833,1.5670903657230155,0.00035262107849121094,1.0,2.0,-5.0,nan,nan,nan,nan,nan
5.230435371398926,-0.20323893427848816,0.05394347384572029,0.010516047477722168,1.5671439538741447,0.00036835670471191406,1.0,2.0,-5.0,nan,nan,nan,nan,nan
5.240363121032715,-0.20364803075790405,0.05375301092863083,0.014123678207397461,1.5672523130177116,0.0004215240478515625,1.0,2.0,-5.0,nan,nan,nan,nan,nan
5.250401020050049,-0.2038360834121704,0.05365469679236412,0.015862584114074707,1.5672955349121938,0.0003714561462402344,1.0,2.0,-5.0,nan,nan,nan,nan,nan
5.2602925300598145,-0.2040141522884369,0.053553786128759384,0.017559826374053955,1.5673393459174814,0.0004494190216064453,1.0,2.0,-5.0,nan,nan,nan,nan,nan
5.270404815673828,-0.20418252050876617,0.05345049872994423,0.019216597080230713,1.5673825674600415,0.0003528594970703125,1.0,2.0,-5.0,nan,nan,nan,nan,nan
5.280441761016846,-0.20449131727218628,0.05323699116706848,0.022350966930389404,1.5674628528458743,0.000392913818359375,1.0,2.0,-5.0,nan,nan,nan,nan,nan
5.29030179977417,-0.20463213324546814,0.0531269833445549,0.023862600326538086,1.5675009303010254,0.0003440380096435547,1.0,2.0,-5.0,nan,nan,nan,nan,nan
5.300565242767334,-0.2047642469406128,0.05301513150334358,0.025338590145111084,1.5675364826152816,0.0003616809844970703,1.0,2.0,-5.0,nan,nan,nan,nan,nan
5.310295581817627,-0.20488184690475464,0.052869729697704315,0.02677994966506958,1.5675722834180181,0.0003638267517089844,1.0,2.0,-5.0,nan,nan,nan,nan,nan
5.320340871810913,-0.20509277284145355,0.05257439985871315,0.029562294483184814,1.5676905938808714,0.0003476142883300781,1.0,2.0,-5.0,nan,nan,nan,nan,nan
5.330377101898193,-0.20518653094768524,0.052424561232328415,0.03087371587753296,1.5677464637823117,0.0003609657287597656,1.0,2.0,-5.0,nan,nan,nan,nan,nan
5.340316534042358,-0.20544037222862244,0.052498262375593185,0.0316123366355896,1.567800983746118,0.0003387928009033203,1.0,2.0,-5.0,nan,nan,nan,nan,nan
5.35040545463562,-0.20568278431892395,0.05256469175219536,0.03233462572097778,1.5678577785910406,0.0003638267517089844,1.0,2.0,-5.0,nan,nan,nan,nan,nan
5.360356569290161,-0.20613473653793335,0.05267654359340668,0.03373187780380249,1.567965470089607,0.0005056858062744141,1.0,2.0,-5.0,nan,nan,nan,nan,nan
5.370375394821167,-0.20634479820728302,0.052722424268722534,0.03440749645233154,1.5680152691886444,0.0003502368927001953,1.0,2.0,-5.0,nan,nan,nan,nan,nan
5.380423069000244,-0.2065485566854477,0.0527598075568676,0.03504139184951782,1.5680639749932328,0.0003657341003417969,1.0,2.0,-5.0,nan,nan,nan,nan,nan
5.390374422073364,-0.2067423015832901,0.05279100686311722,0.03566133975982666,1.5681160497329598,0.00039577484130859375,1.0,2.0,-5.0,nan,nan,nan,nan,nan
5.40063738822937,-0.20710083842277527,0.05283571034669876,0.0368611216545105,1.5682190248093055,0.0006747245788574219,1.0,2.0,-5.0,nan,nan,nan,nan,nan
5.41035008430481,-0.20726624131202698,0.05284948647022247,0.03744155168533325,1.568268150820463,0.0006690025329589844,1.0,2.0,-5.0,nan,nan,nan,nan,nan
5.420409679412842,-0.20742273330688477,0.05285779759287834,0.0380094051361084,1.5683160167335066,0.0005826950073242188,1.0,2.0,-5.0,nan,nan,nan,nan,nan
5.4304327964782715,-0.20757058262825012,0.052860889583826065,0.03853815793991089,1.5683641363634035,0.00036597251892089844,1.0,2.0,-5.0,nan,nan,nan,nan,nan
5.440315246582031,-0.2078409343957901,0.05285215005278587,0.039561569690704346,1.5684546458609292,0.00034689903259277344,1.0,2.0,-5.0,nan,nan,nan,nan,nan
5.450543642044067,-0.207982137799263,0.052824974060058594,0.04005688428878784,1.5684999033638167,0.0006244182586669922,1.0,2.0,-5.0,nan,nan,nan,nan,nan
5.460274696350098,-0.20849576592445374,0.05250182002782822,0.040136635303497314,1.5685711236554583,0.000354766845703125,1.0,2.0,-5.0,nan,nan,nan,nan,nan
5.470398902893066,-0.20899251103401184,0.05218150466680527,0.04021608829498291,1.5686420050319514,0.0003542900085449219,1.0,2.0,-5.0,nan,nan,nan,nan,nan
5.480369567871094,-0.2099369615316391,0.05154893547296524,0.04032772779464722,1.5687805684797032,0.0003616809844970703,1.0,2.0,-5.0,nan,nan,nan,nan,nan
5.490336656570435,-0.21038557589054108,0.05123661458492279,0.04038393497467041,1.5688490101849975,0.0003600120544433594,1.0,2.0,-5.0,nan,nan,nan,nan,nan
5.500450372695923,-0.2108190953731537,0.05092695355415344,0.04044032096862793,1.5689158520089665,0.0003459453582763672,1.0,2.0,-5.0,nan,nan,nan,nan,nan
5.510275602340698,-0.2112378627061844,0.05062010884284973,0.04049694538116455,1.5689818534358846,0.0003542900085449219,1.0,2.0,-5.0,nan,nan,nan,nan,nan
5.520334720611572,-0.2120204120874405,0.05002010986208916,0.04061073064804077,1.5691082016186686,0.000347137451171875,1.0,2.0,-5.0,nan,nan,nan,nan,nan
5.530484437942505,-0.2123851776123047,0.04972667247056961,0.04064446687698364,1.569158519878096,0.00038886070251464844,1.0,2.0,-5.0,nan,nan,nan,nan,nan
5.540318489074707,-0.21273685991764069,0.04943555220961571,0.04067915678024292,1.569207066321764,0.0003509521484375,1.0,2.0,-5.0,nan,nan,nan,nan,nan
5.550420761108398,-0.21307572722434998,0.04914666339755058,0.0407145619392395,1.569253086842449,0.00038361549377441406,1.0,2.0,-5.0,nan,nan,nan,nan,nan
5.560287714004517,-0.21371637284755707,0.04857642576098442,0.04078739881515503,1.5693433660676497,0.0003859996795654297,1.0,2.0,-5.0,nan,nan,nan,nan,nan
5.5703277587890625,-0.21401870250701904,0.048298344016075134,0.04082286357879639,1.5693882506127672,0.0003685951232910156,1.0,2.0,-5.0,nan,nan,nan,nan,nan
5.5803563594818115,-0.21430940926074982,0.04802890121936798,0.04083198308944702,1.5694316674711404,0.0003554821014404297,1.0,2.0,-5.0,nan,nan,nan,nan,nan
5.590304374694824,-0.2144191861152649,0.0485483780503273,0.040244877338409424,1.569474403172323,0.00033092498779296875,1.0,2.0,-5.0,nan,nan,nan,nan,nan
5.600425720214844,-0.2146221548318863,0.04958491772413254,0.039093017578125,1.5695673082018184,0.0003745555877685547,1.0,2.0,-5.0,nan,nan,nan,nan,nan
5.61040472984314,-0.21471571922302246,0.050108615309000015,0.038524091243743896,1.5696117726834933,0.0006983280181884766,1.0,2.0,-5.0,nan,nan,nan,nan,nan
5.620306730270386,-0.21480408310890198,0.050640642642974854,0.037957072257995605,1.56965387630515,0.0003407001495361328,1.0,2.0,-5.0,nan,nan,nan,nan,nan
5.630436658859253,-0.21488727629184723,0.051184140145778656,0.03737139701843262,1.5696955782303577,0.00038313865661621094,1.0,2.0,-5.0,nan,nan,nan,nan,nan
5.640291690826416,-0.21504390239715576,0.05231913551688194,0.03619706630706787,1.5698194206463107,0.0003314018249511719,1.0,2.0,-5.0,nan,nan,nan,nan,nan
5.650402307510376,-0.21508800983428955,0.052917905151844025,0.03561818599700928,1.5695309275926803,0.0003654956817626953,1.0,2.0,-5.0,nan,nan,nan,nan,nan
5.660301446914673,-0.21513517200946808,0.05352689325809479,0.03501617908477783,1.5695499578666832,0.0003910064697265625,1.0,2.0,-5.0,nan,nan,nan,nan,nan
5.670324802398682,-0.21520456671714783,0.054161977022886276,0.03441214561462402,1.5696844798944947,0.0003502368927001953,1.0,2.0,-5.0,nan,nan,nan,nan,nan
5.680384397506714,-0.21531528234481812,0.055519260466098785,0.033132314682006836,1.5697641649283898,0.0004031658172607422,1.0,2.0,-5.0,nan,nan,nan,nan,nan
5.69034218788147,-0.2153625339269638,0.056246958673000336,0.03247612714767456,1.5698010570619196,0.0003452301025390625,1.0,2.0,-5.0,nan,nan,nan,nan,nan
5.700401067733765,-0.21540530025959015,0.057009097188711166,0.03180873394012451,1.5698393077739905,0.00036215782165527344,1.0,2.0,-5.0,nan,nan,nan,nan,nan
5.710307359695435,-0.21544361114501953,0.05780566856265068,0.03113025426864624,1.569876198903985,0.00039887428283691406,1.0,2.0,-5.0,nan,nan,nan,nan,nan
5.7203049659729,-0.2161336988210678,0.06100781261920929,0.02861464023590088,1.5699421010559482,0.0006132125854492188,1.0,2.0,-5.0,nan,nan,nan,nan,nan
5.730472803115845,-0.21645455062389374,0.06260167807340622,0.027350008487701416,1.5699707482607677,0.0003829002380371094,1.0,2.0,-5.0,nan,nan,nan,nan,nan
5.740273952484131,-0.2167646586894989,0.06421227008104324,0.026091337203979492,1.5700179802582221,0.00032138824462890625,1.0,2.0,-5.0,nan,nan,nan,nan,nan
5.750399351119995,-0.21706418693065643,0.06583910435438156,0.02483910322189331,1.5700638958498376,0.0003685951232910156,1.0,2.0,-5.0,nan,nan,nan,nan,nan
5.760274887084961,-0.21763287484645844,0.06913921236991882,0.022355735301971436,1.5701552689526395,0.0006768703460693359,1.0,2.0,-5.0,nan,nan,nan,nan,nan
5.770344972610474,-0.2179025411605835,0.07081161439418793,0.02112525701522827,1.5701998599247466,0.0003573894500732422,1.0,2.0,-5.0,nan,nan,nan,nan,nan
5.780390024185181,-0.2181626707315445,0.07249850034713745,0.019888222217559814,1.5702431892248563,0.0004050731658935547,1.0,2.0,-5.0,nan,nan,nan,nan,nan
5.790353775024414,-0.2184136062860489,0.07419966906309128,0.018659591674804688,1.5702876830521675,0.0003643035888671875,1.0,2.0,-5.0,nan,nan,nan,nan,nan
5.80040431022644,-0.21865542232990265,0.07591494172811508,0.017439544200897217,1.5703308966118015,0.00034618377685546875,1.0,2.0,-5.0,nan,nan,nan,nan,nan
5.810293197631836,-0.21888792514801025,0.0776260495185852,0.01622837781906128,1.5703738021444673,0.0003771781921386719,1.0,2.0,-5.0,nan,nan,nan,nan,nan
5.820284128189087,-0.21932736039161682,0.08109085261821747,0.013833820819854736,1.5704908268223559,0.0003490447998046875,1.0,2.0,-5.0,nan,nan,nan,nan,nan
5.830452919006348,-0.21953608095645905,0.08284565061330795,0.01263648271560669,1.5705266359926189,0.0003955364227294922,1.0,2.0,-5.0,nan,nan,nan,nan,nan
5.840279817581177,-0.2200275957584381,0.08603585511445999,0.011650264263153076,1.570119603832124,0.00032782554626464844,1.0,2.0,-5.0,nan,nan,nan,nan,nan
5.850412130355835,-0.22029028832912445,0.08767443895339966,0.0111541748046875,1.5696421464108568,0.0003821849822998047,1.0,2.0,-5.0,nan,nan,nan,nan,nan
5.860265493392944,-0.22056472301483154,0.0893440991640091,0.010656118392944336,1.56896955418022,0.0003998279571533203,1.0,2.0,-5.0,nan,nan,nan,nan,nan
5.870345592498779,-0.22084657847881317,0.09106241911649704,0.010155975818634033,1.5680938493682857,0.00034499168395996094,1.0,2.0,-5.0,nan,nan,nan,nan,nan
5.880354404449463,-0.22144614160060883,0.09460631757974625,0.009112000465393066,1.5656865660377302,0.00040459632873535156,1.0,2.0,-5.0,nan,nan,nan,nan,nan
5.890324592590332,-0.22176425158977509,0.09643587470054626,0.008587539196014404,1.5641528055315015,0.00033402442932128906,1.0,2.0,-5.0,nan,nan,nan,nan,nan
5.900409460067749,-0.22209469974040985,0.09830652177333832,0.008061707019805908,1.5623885106627649,0.0003428459167480469,1.0,2.0,-5.0,nan,nan,nan,nan,nan
5.910281181335449,-0.22243762016296387,0.10022052377462387,0.007534384727478027,1.5603878027670817,0.0003666877746582031,1.0,2.0,-5.0,nan,nan,nan,nan,nan
5.920297622680664,-0.2231365591287613,0.10417970269918442,0.00646662712097168,1.5559136062706576,0.0003376007080078125,1.0,2.0,-5.0,nan,nan,nan,nan,nan
5.930373191833496,-0.22348570823669434,0.10622736811637878,0.005904674530029297,1.553421926443529,0.00038242340087890625,1.0,2.0,-5.0,nan,nan,nan,nan,nan
5.940281391143799,-0.22384706139564514,0.10832389444112778,0.005339324474334717,1.5507678006412957,0.00033164024353027344,1.0,2.0,-5.0,nan,nan,nan,nan,nan
5.950361967086792,-0.22421078383922577,0.11047230660915375,0.004770219326019287,1.5479263007841524,0.00036334991455078125,1.0,2.0,-5.0,nan,nan,nan,nan,nan
5.960242033004761,-0.22496114671230316,0.11459318548440933,0.003684520721435547,1.5417328951990066,0.0003504753112792969,1.0,2.0,-5.0,nan,nan,nan,nan,nan
5.970313549041748,-0.22533977031707764,0.11657348275184631,0.003164052963256836,1.5384095408695262,0.0003552436828613281,1.0,2.0,-5.0,nan,nan,nan,nan,nan
5.9803619384765625,-0.22571396827697754,0.11861658841371536,0.002626180648803711,1.5349025326831907,0.00037384033203125,1.0,2.0,-5.0,nan,nan,nan,nan,nan
5.990298509597778,-0.226063534617424,0.12071745842695236,0.0020879507064819336,1.5311912583154796,0.0003380775451660156,1.0,2.0,-5.0,nan,nan,nan,nan,nan
6.000420808792114,-0.22680233418941498,0.12516513466835022,0.0009801983833312988,1.5228222123458386,0.00034499168395996094,1.0,2.0,-5.0,nan,nan,nan,nan,nan
6.0102832317352295,-0.22720524668693542,0.12751801311969757,0.00043576955795288086,1.5181235765342855,0.00036144256591796875,1.0,2.0,-5.0,nan,nan,nan,nan,nan
6.020280599594116,-0.22759516537189484,0.12994948029518127,-0.00011277198791503906,1.5132007607615643,0.00034046173095703125,1.0,2.0,-5.0,nan,nan,nan,nan,nan
6.030468463897705,-0.2279500961303711,0.13245554268360138,-0.0006921291351318359,1.5081885565957784,0.00041174888610839844,1.0,2.0,-5.0,nan,nan,nan,nan,nan
6.040278911590576,-0.228287473320961,0.13504374027252197,-0.0012736320495605469,1.5030022673681906,0.0003383159637451172,1.0,2.0,-5.0,nan,nan,nan,nan,nan
6.050338983535767,-0.22860267758369446,0.13771569728851318,-0.0018576383590698242,1.4976256752264199,0.0003638267517089844,1.0,2.0,-5.0,nan,nan,nan,nan,nan
6.0602850914001465,-0.22915302217006683,0.14331983029842377,-0.0030317306518554688,1.486425584896399,0.000392913818359375,1.0,2.0,-5.0,nan,nan,nan,nan,nan
6.0703113079071045,-0.2293826937675476,0.14625780284404755,-0.003620147705078125,1.4805964529324787,0.0003733634948730469,1.0,2.0,-5.0,nan,nan,nan,nan,nan
6.080276012420654,-0.22958604991436005,0.14929090440273285,-0.004223346710205078,1.4745416578455033,0.0003764629364013672,1.0,2.0,-5.0,nan,nan,nan,nan,nan
6.090300798416138,-0.22979490458965302,0.15175245702266693,-0.004878640174865723,1.4683316421139005,0.0003581047058105469,1.0,2.0,-5.0,nan,nan,nan,nan,nan
6.100377798080444,-0.2301161140203476,0.1570151150226593,-0.0061686038970947266,1.4555776823158624,0.0003254413604736328,1.0,2.0,-5.0,nan,nan,nan,nan,nan
6.110276937484741,-0.23025652766227722,0.15982069075107574,-0.006807923316955566,1.4490600773151436,0.0003764629364013672,1.0,2.0,-5.0,nan,nan,nan,nan,nan
6.120306015014648,-0.2304868847131729,0.1657993644475937,-0.008037686347961426,1.4358541231888333,0.00036644935607910156,1.0,2.0,-5.0,nan,nan,nan,nan,nan
6.130425214767456,-0.2305741310119629,0.16897857189178467,-0.008667230606079102,1.4292834008316841,0.0004127025604248047,1.0,2.0,-5.0,nan,nan,nan,nan,nan
6.1402692794799805,-0.2306329905986786,0.17229433357715607,-0.009279847145080566,1.4225762359763734,0.0003414154052734375,1.0,2.0,-5.0,nan,nan,nan,nan,nan
6.15031623840332,-0.23065610229969025,0.17574700713157654,-0.00986480712890625,1.4156630561355046,0.00039005279541015625,1.0,2.0,-5.0,nan,nan,nan,nan,nan
6.1607067584991455,-0.23063069581985474,0.17933788895606995,-0.010428190231323242,1.4090901269169316,0.0003466606140136719,1.0,2.0,-5.0,nan,nan,nan,nan,nan
6.170265436172485,-0.23055483400821686,0.1830655187368393,-0.010963916778564453,1.4024292688235291,0.00033664703369140625,1.0,2.0,-5.0,nan,nan,nan,nan,nan
6.180874586105347,-0.2302248626947403,0.19089536368846893,-0.011963963508605957,1.3894108018841034,0.00035881996154785156,1.0,2.0,-5.0,nan,nan,nan,nan,nan
6.190274238586426,-0.22996701300144196,0.19497914612293243,-0.012441396713256836,1.3832758536955163,0.0003654956817626953,1.0,2.0,-5.0,nan,nan,nan,nan,nan
6.201289653778076,-0.22926819324493408,0.2034670114517212,-0.013289451599121094,1.372200055301029,0.00033473968505859375,1.0,2.0,-5.0,nan,nan,nan,nan,nan
6.210256576538086,-0.229292631149292,0.20776548981666565,-0.013996720314025879,1.3678106804375543,0.00033402442932128906,1.0,2.0,-5.0,nan,nan,nan,nan,nan
6.221181631088257,-0.22928212583065033,0.21211552619934082,-0.014668941497802734,1.3647379503426547,0.0003447532653808594,1.0,2.0,-5.0,nan,nan,nan,nan,nan
6.230342626571655,-0.2292107492685318,0.2165229618549347,-0.015253424644470215,1.3625822206618923,0.00036263465881347656,1.0,2.0,-5.0,nan,nan,nan,nan,nan
6.241128921508789,-0.22892478108406067,0.22553957998752594,-0.01613783836364746,1.3617022005160053,0.00033593177795410156,1.0,2.0,-5.0,nan,nan,nan,nan,nan
6.250292778015137,-0.22871312499046326,0.23014962673187256,-0.016393423080444336,1.362921280348163,0.0003592967987060547,1.0,2.0,-5.0,nan,nan,nan,nan,nan
6.261251449584961,-0.2284582108259201,0.23484157025814056,-0.01646137237548828,1.3650032644679166,0.00038552284240722656,1.0,2.0,-5.0,nan,nan,nan,nan,nan
6.270273447036743,-0.22815774381160736,0.23959486186504364,-0.016431331634521484,1.3687559249819303,0.0003535747528076172,1.0,2.0,-5.0,nan,nan,nan,nan,nan
6.280452489852905,-0.22815774381160736,0.23959486186504364,-0.016431331634521484,1.3687559249819303,0.00039076805114746094,1.0,2.0,-5.0,nan,nan,nan,nan,nan
6.290289402008057,-0.22705018520355225,0.25433534383773804,-0.015582799911499023,1.3889750603552329,0.0003342628479003906,1.0,2.0,-5.0,nan,nan,nan,nan,nan
6.300526142120361,-0.22705018520355225,0.25433534383773804,-0.015582799911499023,1.3889750603552329,0.00035452842712402344,1.0,2.0,-5.0,nan,nan,nan,nan,nan
6.310251712799072,-0.2262158840894699,0.26465660333633423,-0.014233946800231934,1.4087358818681546,0.000335693359375,1.0,2.0,-5.0,nan,nan,nan,nan,nan
6.320408582687378,-0.2262158840894699,0.26465660333633423,-0.014233946800231934,1.4087358818681546,0.0003726482391357422,1.0,2.0,-5.0,nan,nan,nan,nan,nan
6.330219745635986,-0.22501826286315918,0.28087735176086426,-0.011178851127624512,1.4555115346252494,0.00035572052001953125,1.0,2.0,-5.0,nan,nan,nan,nan,nan
6.3403356075286865,-0.22501826286315918,0.28087735176086426,-0.011178851127624512,1.4555115346252494,0.0003674030303955078,1.0,2.0,-5.0,nan,nan,nan,nan,nan
6.350234746932983,-0.22494442760944366,0.29098498821258545,-0.008653521537780762,1.4951384858625636,0.0003387928009033203,1.0,2.0,-5.0,nan,nan,nan,nan,nan
6.360358238220215,-0.22494442760944366,0.29098498821258545,-0.008653521537780762,1.4951384858625636,0.0003902912139892578,1.0,2.0,-5.0,nan,nan,nan,nan,nan
6.370224237442017,-0.22553159296512604,0.30588769912719727,-0.0033516883850097656,1.5466953786271578,0.00033283233642578125,1.0,2.0,-5.0,nan,nan,nan,nan,nan
6.380389928817749,-0.22553159296512604,0.30588769912719727,-0.0033516883850097656,1.5466953786271578,0.0003845691680908203,1.0,2.0,-5.0,nan,nan,nan,nan,nan
6.390217542648315,-0.22644023597240448,0.3163526654243469,0.0016099214553833008,1.577664227249878,0.0003325939178466797,1.0,2.0,-5.0,nan,nan,nan,nan,nan
6.400523900985718,-0.22644023597240448,0.3163526654243469,0.0016099214553833008,1.577664227249878,0.0003876686096191406,1.0,2.0,-5.0,nan,nan,nan,nan,nan
6.410635471343994,-0.23022092878818512,0.3343069553375244,0.008766651153564453,1.6124526170950046,0.00035190582275390625,1.0,2.0,-5.0,nan,nan,nan,nan,nan
6.420410633087158,-0.23022092878818512,0.3343069553375244,0.008766651153564453,1.6124526170950046,0.00036334991455078125,1.0,2.0,-5.0,nan,nan,nan,nan,nan
6.430192232131958,-0.23367710411548615,0.34506547451019287,0.009406864643096924,1.7094186934798472,0.0003228187561035156,1.0,2.0,-5.0,nan,nan,nan,nan,nan
6.440399408340454,-0.23367710411548615,0.34506547451019287,0.009406864643096924,1.7094186934798472,0.00035858154296875,1.0,2.0,-5.0,nan,nan,nan,nan,nan
6.450845241546631,-0.22739927470684052,0.34885457158088684,-0.012873291969299316,1.2770921918799705,0.00034737586975097656,1.0,2.0,-5.0,nan,nan,nan,nan,nan
6.460381031036377,-0.22739927470684052,0.34885457158088684,-0.012873291969299316,1.2770921918799705,0.0003440380096435547,1.0,2.0,-5.0,nan,nan,nan,nan,nan
6.47081995010376,-0.2219349890947342,0.34500575065612793,-0.034136176109313965,0.9646540847778988,0.0003464221954345703,1.0,2.0,-5.0,nan,nan,nan,nan,nan
6.480305194854736,-0.2219349890947342,0.34500575065612793,-0.034136176109313965,0.9646540847778988,0.0003504753112792969,1.0,2.0,-5.0,nan,nan,nan,nan,nan
6.490880250930786,-0.21492531895637512,0.3400149345397949,-0.06274878978729248,0.5802139691213635,0.00033593177795410156,1.0,2.0,-5.0,nan,nan,nan,nan,nan
6.50049352645874,-0.21492531895637512,0.3400149345397949,-0.06274878978729248,0.5802139691213635,0.00035071372985839844,1.0,2.0,-5.0,nan,nan,nan,nan,nan
6.510877370834351,-0.20975613594055176,0.3380486071109772,-0.07950758934020996,0.3804112602446694,0.0003647804260253906,1.0,2.0,-5.0,nan,nan,nan,nan,nan
6.520431280136108,-0.20975613594055176,0.3380486071109772,-0.07950758934020996,0.3804112602446694,0.0003554821014404297,1.0,2.0,-5.0,nan,nan,nan,nan,nan
6.530281066894531,-0.20420977473258972,0.33697861433029175,-0.09445476531982422,0.20838546299816837,0.0003402233123779297,1.0,2.0,-5.0,nan,nan,nan,nan,nan
6.540371894836426,-0.20130686461925507,0.3367403447628021,-0.10125696659088135,0.1286743449971875,0.00037598609924316406,1.0,2.0,-5.0,nan,nan,nan,nan,nan
6.550403594970703,-0.19832676649093628,0.33669015765190125,-0.1076129674911499,0.05154574211475427,0.00037384033203125,1.0,2.0,-5.0,nan,nan,nan,nan,nan
6.5603179931640625,-0.19527165591716766,0.3368215262889862,-0.11352038383483887,-0.02395583918853539,0.0003333091735839844,1.0,2.0,-5.0,nan,nan,nan,nan,nan
6.570423603057861,-0.18895764648914337,0.33761534094810486,-0.12398731708526611,-0.1731328330582525,0.0003848075866699219,1.0,2.0,-5.0,nan,nan,nan,nan,nan
6.5803210735321045,-0.18550768494606018,0.3382982015609741,-0.12855660915374756,-0.2480993594814311,0.0003542900085449219,1.0,2.0,-5.0,nan,nan,nan,nan,nan
6.5904505252838135,-0.1819906383752823,0.3391525149345398,-0.132643461227417,-0.32477164277890846,0.00039958953857421875,1.0,2.0,-5.0,nan,nan,nan,nan,nan
6.600477695465088,-0.17685118317604065,0.34085938334465027,-0.13530635833740234,-0.40310590579196137,0.0003745555877685547,1.0,2.0,-5.0,nan,nan,nan,nan,nan
6.610313415527344,-0.16657109558582306,0.3446957468986511,-0.13922274112701416,-0.5673679374311086,0.0003390312194824219,1.0,2.0,-5.0,nan,nan,nan,nan,nan
6.620413541793823,-0.16140902042388916,0.34680014848709106,-0.14051878452301025,-0.6544282284460072,0.0003590583801269531,1.0,2.0,-5.0,nan,nan,nan,nan,nan
6.6302900314331055,-0.15623298287391663,0.3490382134914398,-0.14138281345367432,-0.7452170135932248,0.0003402233123779297,1.0,2.0,-5.0,nan,nan,nan,nan,nan
6.640460729598999,-0.15103760361671448,0.35141152143478394,-0.14183473587036133,-0.8399566665301212,0.0003733634948730469,1.0,2.0,-5.0,nan,nan,nan,nan,nan
6.650411367416382,-0.1458176076412201,0.35392120480537415,-0.14187002182006836,-0.9387373501790701,0.0003566741943359375,1.0,2.0,-5.0,nan,nan,nan,nan,nan
6.6603593826293945,-0.14053834974765778,0.3565736413002014,-0.14149796962738037,-1.0414463248830952,0.0003437995910644531,1.0,2.0,-5.0,nan,nan,nan,nan,nan
6.670382499694824,-0.12988218665122986,0.3622762858867645,-0.13956844806671143,-1.2577206640573644,0.0003635883331298828,1.0,2.0,-5.0,nan,nan,nan,nan,nan
6.680316209793091,-0.12449873238801956,0.36532190442085266,-0.13803064823150635,-1.369595029865319,0.00034332275390625,1.0,2.0,-5.0,nan,nan,nan,nan,nan
6.690337896347046,-0.11361096054315567,0.371787965297699,-0.13388776779174805,-1.5961485442839263,0.0003552436828613281,1.0,2.0,-5.0,nan,nan,nan,nan,nan
6.700493574142456,-0.10810684412717819,0.3751990795135498,-0.1312873363494873,-1.7088121368269809,0.00034880638122558594,1.0,2.0,-5.0,nan,nan,nan,nan,nan
6.710306644439697,-0.1025649756193161,0.37872087955474854,-0.12834298610687256,-1.819853979532625,0.00033855438232421875,1.0,2.0,-5.0,nan,nan,nan,nan,nan
6.720420598983765,-0.09700041264295578,0.38234248757362366,-0.1250598430633545,-1.9285851715789502,0.0003643035888671875,1.0,2.0,-5.0,nan,nan,nan,nan,nan
6.730262041091919,-0.08606141805648804,0.3940533399581909,-0.11532068252563477,-2.1373324614712614,0.0003237724304199219,1.0,2.0,-5.0,nan,nan,nan,nan,nan
6.740316867828369,-0.08055383712053299,0.3999910354614258,-0.11001050472259521,-2.2370728886293567,0.0003459453582763672,1.0,2.0,-5.0,nan,nan,nan,nan,nan
6.750494718551636,-0.07502938061952591,0.40597638487815857,-0.10439395904541016,-2.3339665486670667,0.00036406517028808594,1.0,2.0,-5.0,nan,nan,nan,nan,nan
6.7602667808532715,-0.06949508190155029,0.4120042622089386,-0.09846818447113037,-2.4283068252217372,0.00032973289489746094,1.0,2.0,-5.0,nan,nan,nan,nan,nan
6.770358562469482,-0.05842398852109909,0.4241676926612854,-0.08566737174987793,-2.6109542862409003,0.00035572052001953125,1.0,2.0,-5.0,nan,nan,nan,nan,nan
6.780318737030029,-0.05290021374821663,0.4302935004234314,-0.07877612113952637,-2.7001957200606688,0.0003979206085205078,1.0,2.0,-5.0,nan,nan,nan,nan,nan
6.790361404418945,-0.047459766268730164,0.4364491403102875,-0.07156217098236084,-2.788699541404947,0.0003504753112792969,1.0,2.0,-5.0,nan,nan,nan,nan,nan
6.80057692527771,-0.04204070195555687,0.44262951612472534,-0.0639944076538086,-2.8765090663088486,0.0003745555877685547,1.0,2.0,-5.0,nan,nan,nan,nan,nan
6.810289621353149,-0.031284429132938385,0.4550488293170929,-0.04774320125579834,-3.0531343283448154,0.0003275871276855469,1.0,2.0,-5.0,nan,nan,nan,nan,nan
6.820372104644775,-0.025954458862543106,0.4612812101840973,-0.039031028747558594,-3.1427437461926973,0.0003859996795654297,1.0,2.0,-5.0,nan,nan,nan,nan,nan
6.830264568328857,-0.021346231922507286,0.46515655517578125,-0.03356063365936279,-3.217465754879835,0.00036025047302246094,1.0,2.0,-5.0,nan,nan,nan,nan,nan
6.840317726135254,-0.017468208447098732,0.46672993898391724,-0.03137946128845215,-3.2880042770240663,0.0003483295440673828,1.0,2.0,-5.0,nan,nan,nan,nan,nan
6.8503758907318115,-0.006471640430390835,0.47320258617401123,-0.025696992874145508,-3.4210703765783004,0.00036978721618652344,1.0,2.0,-5.0,nan,nan,nan,nan,nan
6.86028265953064,-0.0018960705492645502,0.4775180220603943,-0.02513730525970459,-3.4782040443458353,0.0003399848937988281,1.0,2.0,-5.0,nan,nan,nan,nan,nan
6.870314359664917,0.002695461269468069,0.4819110631942749,-0.024442315101623535,-3.533231812409164,0.0003559589385986328,1.0,2.0,-5.0,nan,nan,nan,nan,nan
6.880272150039673,0.007307719439268112,0.486356258392334,-0.023564696311950684,-3.586699368730206,0.00038123130798339844,1.0,2.0,-5.0,nan,nan,nan,nan,nan
6.89032244682312,0.01659090630710125,0.49532368779182434,-0.021120667457580566,-3.6901500954376734,0.0003459453582763672,1.0,2.0,-5.0,nan,nan,nan,nan,nan
6.900516033172607,0.021259751170873642,0.49982520937919617,-0.019485831260681152,-3.740605347396117,0.0003650188446044922,1.0,2.0,-5.0,nan,nan,nan,nan,nan
6.910283327102661,0.025943923741579056,0.5043297410011292,-0.017557978630065918,-3.79045509245502,0.0003261566162109375,1.0,2.0,-5.0,nan,nan,nan,nan,nan
6.920396327972412,0.03063889965415001,0.5088316202163696,-0.01531684398651123,-3.8398620559481302,0.0003662109375,1.0,2.0,-5.0,nan,nan,nan,nan,nan
6.930288791656494,0.039990585297346115,0.5178214311599731,-0.009794831275939941,-3.9379093592789607,0.00033926963806152344,1.0,2.0,-5.0,nan,nan,nan,nan,nan
6.940364599227905,0.04463428631424904,0.5223075747489929,-0.006488442420959473,-3.9863973514909263,0.00034427642822265625,1.0,2.0,-5.0,nan,nan,nan,nan,nan
6.950396537780762,0.049265872687101364,0.5267832279205322,-0.0027693510055541992,-4.034941880191782,0.0003561973571777344,1.0,2.0,-5.0,nan,nan,nan,nan,nan
6.960240125656128,0.053881336003541946,0.5312479138374329,0.001383662223815918,-4.083648536982402,0.0003235340118408203,1.0,2.0,-5.0,nan,nan,nan,nan,nan
6.970322608947754,0.06180507317185402,0.5394719243049622,0.007451295852661133,-4.172210295681699,0.00035119056701660156,1.0,2.0,-5.0,nan,nan,nan,nan,nan
6.9802751541137695,0.06494180113077164,0.5430713891983032,0.00903940200805664,-4.212486870895141,0.0003674030303955078,1.0,2.0,-5.0,nan,nan,nan,nan,nan
6.990311861038208,0.06790444254875183,0.5465171337127686,0.010622084140777588,-4.251783665611791,0.00036334991455078125,1.0,2.0,-5.0,nan,nan,nan,nan,nan
7.0005388259887695,0.07071962207555771,0.5499511361122131,0.012276828289031982,-4.289682826944535,0.00035691261291503906,1.0,2.0,-5.0,nan,nan,nan,nan,nan
7.010275602340698,0.07590926438570023,0.557172417640686,0.01603764295578003,-4.361343033361548,0.00032448768615722656,1.0,2.0,-5.0,nan,nan,nan,nan,nan
7.020479440689087,0.07826980948448181,0.5609170198440552,0.018087685108184814,-4.395291466212395,0.0006070137023925781,1.0,2.0,-5.0,nan,nan,nan,nan,nan
7.030318737030029,0.0804232805967331,0.5645917057991028,0.02006995677947998,-4.428489256418251,0.0004336833953857422,1.0,2.0,-5.0,nan,nan,nan,nan,nan
7.040386199951172,0.08174855262041092,0.5676503777503967,0.02111530303955078,-4.451442891186023,0.0003452301025390625,1.0,2.0,-5.0,nan,nan,nan,nan,nan
7.050366163253784,0.08262680470943451,0.5727183818817139,0.02145087718963623,-4.485442726763489,0.00039315223693847656,1.0,2.0,-5.0,nan,nan,nan,nan,nan
7.060236930847168,0.08303163200616837,0.5753135085105896,0.021526336669921875,-4.500569693471551,0.0003352165222167969,1.0,2.0,-5.0,nan,nan,nan,nan,nan
7.070285320281982,0.08341994136571884,0.5779147148132324,0.021467745304107666,-4.514696272744811,0.00036454200744628906,1.0,2.0,-5.0,nan,nan,nan,nan,nan
7.080268383026123,0.08380020409822464,0.5805696845054626,0.021343588829040527,-4.527910463938618,0.0003409385681152344,1.0,2.0,-5.0,nan,nan,nan,nan,nan
7.090279579162598,0.08271703869104385,0.5848962664604187,0.020912885665893555,-4.553029827190009,0.00035071372985839844,1.0,2.0,-5.0,nan,nan,nan,nan,nan
7.100624084472656,0.08127232640981674,0.5866242051124573,0.020673811435699463,-4.565253811867791,0.0003380775451660156,1.0,2.0,-5.0,nan,nan,nan,nan,nan
7.110292673110962,0.07986036688089371,0.5884579420089722,0.020448684692382812,-4.577471686449631,0.0003478527069091797,1.0,2.0,-5.0,nan,nan,nan,nan,nan
7.120376348495483,0.07847924530506134,0.5903979539871216,0.020224273204803467,-4.589614762828456,0.0003457069396972656,1.0,2.0,-5.0,nan,nan,nan,nan,nan
7.130223035812378,0.07584507763385773,0.5946869850158691,0.019831359386444092,-4.613967837499915,0.0003600120544433594,1.0,2.0,-5.0,nan,nan,nan,nan,nan
7.140354156494141,0.07459378242492676,0.5970115661621094,0.019614338874816895,-4.6264126964570735,0.0005331039428710938,1.0,2.0,-5.0,nan,nan,nan,nan,nan
7.150341033935547,0.07342705875635147,0.5994760394096375,0.01938796043395996,-4.638913565526714,0.0003955364227294922,1.0,2.0,-5.0,nan,nan,nan,nan,nan
7.160258769989014,0.07234062254428864,0.6020671725273132,0.019158542156219482,-4.651465450172287,0.0003170967102050781,1.0,2.0,-5.0,nan,nan,nan,nan,nan
7.170271635055542,0.07044810056686401,0.6075869798660278,0.018660366535186768,-4.676334454601211,0.0003714561462402344,1.0,2.0,-5.0,nan,nan,nan,nan,nan
7.180266380310059,0.06967387348413467,0.6104848384857178,0.01837366819381714,-4.688393010591754,0.00033974647521972656,1.0,2.0,-5.0,nan,nan,nan,nan,nan
7.1903111934661865,0.0690411776304245,0.6134448051452637,0.01803004741668701,-4.699984799170648,0.00035953521728515625,1.0,2.0,-5.0,nan,nan,nan,nan,nan
7.20048451423645,0.06857223063707352,0.6164411902427673,0.017643630504608154,-4.710926284359285,0.00035262107849121094,1.0,2.0,-5.0,nan,nan,nan,nan,nan
7.210264682769775,0.06800653040409088,0.622534990310669,0.01693028211593628,-4.730671636956854,0.00032138824462890625,1.0,2.0,-5.0,nan,nan,nan,nan,nan
7.220362424850464,0.06762441992759705,0.6253434419631958,0.016272544860839844,-4.739523155910458,0.00035881996154785156,1.0,2.0,-5.0,nan,nan,nan,nan,nan
7.230261325836182,0.06735709309577942,0.628221333026886,0.015695512294769287,-4.747621098989239,0.0003895759582519531,1.0,2.0,-5.0,nan,nan,nan,nan,nan
7.240328788757324,0.06720387935638428,0.6311700344085693,0.015184104442596436,-4.754909824446302,0.00034928321838378906,1.0,2.0,-5.0,nan,nan,nan,nan,nan
7.25036358833313,0.06722934544086456,0.6372971534729004,0.014415264129638672,-4.766841838799917,0.00035309791564941406,1.0,2.0,-5.0,nan,nan,nan,nan,nan
7.260273694992065,0.06739838421344757,0.6404852271080017,0.014158129692077637,-4.771328772960137,0.0003275871276855469,1.0,2.0,-5.0,nan,nan,nan,nan,nan
7.270273685455322,0.06766247004270554,0.6437634825706482,0.01398545503616333,-4.774712969870764,0.0003554821014404297,1.0,2.0,-5.0,nan,nan,nan,nan,nan
7.280250549316406,0.06800752878189087,0.647125244140625,0.013896584510803223,-4.77689850179936,0.0004730224609375,1.0,2.0,-5.0,nan,nan,nan,nan,nan
7.29027247428894,0.06892256438732147,0.6541641354560852,0.013938367366790771,-4.777335685527968,0.00033473968505859375,1.0,2.0,-5.0,nan,nan,nan,nan,nan
7.300463676452637,0.06947365403175354,0.6578534245491028,0.014087796211242676,-4.775326416904122,0.0003476142883300781,1.0,2.0,-5.0,nan,nan,nan,nan,nan
7.310263633728027,0.0700746402144432,0.6616637706756592,0.014324963092803955,-4.771686843711446,0.00031876564025878906,1.0,2.0,-5.0,nan,nan,nan,nan,nan
7.3203771114349365,0.07071569561958313,0.6656014323234558,0.014651715755462646,-4.766300407552702,0.0003523826599121094,1.0,2.0,-5.0,nan,nan,nan,nan,nan
7.330225944519043,0.07207656651735306,0.6738817691802979,0.01558154821395874,-4.7497867527136055,0.0003399848937988281,1.0,2.0,-5.0,nan,nan,nan,nan,nan
7.340310096740723,0.07277530431747437,0.6782338619232178,0.016172468662261963,-4.73840235454875,0.0003364086151123047,1.0,2.0,-5.0,nan,nan,nan,nan,nan
7.3503029346466064,0.07428817451000214,0.682648777961731,0.01577693223953247,-4.724758452001645,0.00034737586975097656,1.0,2.0,-5.0,nan,nan,nan,nan,nan
7.360296249389648,0.07576929777860641,0.6872138977050781,0.015511393547058105,-4.708694808357729,0.0003383159637451172,1.0,2.0,-5.0,nan,nan,nan,nan,nan
7.370279788970947,0.07858911156654358,0.6968021988868713,0.015380144119262695,-4.66873595133722,0.0003266334533691406,1.0,2.0,-5.0,nan,nan,nan,nan,nan
7.380250692367554,0.07990716397762299,0.7018271088600159,0.015522122383117676,-4.644582413293861,0.0003612041473388672,1.0,2.0,-5.0,nan,nan,nan,nan,nan
7.390216112136841,0.08115182816982269,0.7070062756538391,0.015799522399902344,-4.61749269654163,0.0003495216369628906,1.0,2.0,-5.0,nan,nan,nan,nan,nan
7.400535583496094,0.08231447637081146,0.7123386859893799,0.01622849702835083,-4.587357628775026,0.0003578662872314453,1.0,2.0,-5.0,nan,nan,nan,nan,nan
7.410205602645874,0.08338505774736404,0.7177951335906982,0.01680666208267212,-4.5538094924060974,0.0003180503845214844,1.0,2.0,-5.0,nan,nan,nan,nan,nan
7.420316457748413,0.08438374102115631,0.722939670085907,0.01735401153564453,-4.52363582193227,0.0003635883331298828,1.0,2.0,-5.0,nan,nan,nan,nan,nan
7.4302568435668945,0.08608797937631607,0.7328119874000549,0.018913209438323975,-4.46612169434092,0.00037741661071777344,1.0,2.0,-5.0,nan,nan,nan,nan,nan
7.440312147140503,0.0866963118314743,0.737949550151825,0.020112335681915283,-4.437328818682609,0.0003464221954345703,1.0,2.0,-5.0,nan,nan,nan,nan,nan
7.450334787368774,0.0873018428683281,0.748554527759552,0.023289203643798828,-4.3796256429169915,0.0003447532653808594,1.0,2.0,-5.0,nan,nan,nan,nan,nan
7.46027135848999,0.08726097643375397,0.7540037631988525,0.025253772735595703,-4.350554470480986,0.0003223419189453125,1.0,2.0,-5.0,nan,nan,nan,nan,nan
7.470820665359497,0.08910155296325684,0.7607025504112244,0.02722841501235962,-4.378209844222478,0.00034046173095703125,1.0,2.0,-5.0,nan,nan,nan,nan,nan
7.480224132537842,0.08976076543331146,0.7656484842300415,0.02802109718322754,-4.324442009080398,0.0003666877746582031,1.0,2.0,-5.0,nan,nan,nan,nan,nan
7.490858316421509,0.09031195193529129,0.7690911889076233,0.02593851089477539,-4.2597611116660925,0.0003383159637451172,1.0,2.0,-5.0,nan,nan,nan,nan,nan
7.500519514083862,0.0921064242720604,0.7721334099769592,0.022533893585205078,-4.292649847245627,0.0003604888916015625,1.0,2.0,-5.0,nan,nan,nan,nan,nan
7.510821580886841,0.10672047734260559,0.7704200148582458,-0.0013998746871948242,-4.805735952751027,0.0003254413604736328,1.0,2.0,-5.0,nan,nan,nan,nan,nan
7.520320415496826,0.11217209696769714,0.76670902967453,-0.013443827629089355,-4.995403205580558,0.0003724098205566406,1.0,2.0,-5.0,nan,nan,nan,nan,nan
7.53127121925354,0.12292318046092987,0.7603248357772827,-0.03623461723327637,-5.318269886647835,0.00036716461181640625,1.0,2.0,-5.0,nan,nan,nan,nan,nan
7.54029655456543,0.1282797008752823,0.7576025128364563,-0.046991705894470215,-5.452183156794643,0.0003628730773925781,1.0,2.0,-5.0,nan,nan,nan,nan,nan
7.551366806030273,0.13365177810192108,0.755180835723877,-0.05735611915588379,-5.571911104933108,0.0003714561462402344,1.0,2.0,-5.0,nan,nan,nan,nan,nan
7.560274362564087,0.13901525735855103,0.7530444264411926,-0.06736207008361816,-5.681313241400723,0.0003230571746826172,1.0,2.0,-5.0,nan,nan,nan,nan,nan
7.570364713668823,0.13901525735855103,0.7530444264411926,-0.06736207008361816,-5.681313241400723,0.00035262107849121094,1.0,2.0,-5.0,nan,nan,nan,nan,nan
7.580258131027222,0.15520453453063965,0.748188316822052,-0.09554493427276611,-5.978192772786439,0.00037384033203125,1.0,2.0,-5.0,nan,nan,nan,nan,nan
7.590388059616089,0.15520453453063965,0.748188316822052,-0.09554493427276611,-5.978192772786439,0.00035762786865234375,1.0,2.0,-5.0,nan,nan,nan,nan,nan
7.600547790527344,0.16483648121356964,0.7465540766716003,-0.11320114135742188,-6.1715760940785565,0.0006887912750244141,1.0,2.0,-5.0,nan,nan,nan,nan,nan
7.6103880405426025,0.16483648121356964,0.7465540766716003,-0.11320114135742188,-6.1715760940785565,0.0003628730773925781,1.0,2.0,-5.0,nan,nan,nan,nan,nan
7.620318174362183,0.17736810445785522,0.7462323307991028,-0.13794338703155518,-6.481610498146598,0.0003521442413330078,1.0,2.0,-5.0,nan,nan,nan,nan,nan
7.630385398864746,0.17736810445785522,0.7462323307991028,-0.13794338703155518,-6.481610498146598,0.0006132125854492188,1.0,2.0,-5.0,nan,nan,nan,nan,nan
7.640220642089844,0.1854020059108734,0.7468937039375305,-0.15293622016906738,-6.710468085334602,0.00034046173095703125,1.0,2.0,-5.0,nan,nan,nan,nan,nan
7.650457143783569,0.1854020059108734,0.7468937039375305,-0.15293622016906738,-6.710468085334602,0.00039267539978027344,1.0,2.0,-5.0,nan,nan,nan,nan,nan
7.660326242446899,0.19713278114795685,0.7490831613540649,-0.17270410060882568,-7.089941777874076,0.00033736228942871094,1.0,2.0,-5.0,nan,nan,nan,nan,nan
7.6704277992248535,0.19713278114795685,0.7490831613540649,-0.17270410060882568,-7.089941777874076,0.00042128562927246094,1.0,2.0,-5.0,nan,nan,nan,nan,nan
7.680325984954834,0.2048303186893463,0.7513167858123779,-0.18383502960205078,-7.360394605042103,0.00035953521728515625,1.0,2.0,-5.0,nan,nan,nan,nan,nan
7.690434217453003,0.2048303186893463,0.7513167858123779,-0.18383502960205078,-7.360394605042103,0.0003948211669921875,1.0,2.0,-5.0,nan,nan,nan,nan,nan
7.70078182220459,0.21250611543655396,0.7540732622146606,-0.1933079957962036,-7.634618957947897,0.00045299530029296875,1.0,2.0,-5.0,nan,nan,nan,nan,nan
7.710379600524902,0.21250611543655396,0.7540732622146606,-0.1933079957962036,-7.634618957947897,0.00035572052001953125,1.0,2.0,-5.0,nan,nan,nan,nan,nan
7.720566987991333,0.22397279739379883,0.7590924501419067,-0.204390287399292,-8.033294945448468,0.0003573894500732422,1.0,2.0,-5.0,nan,nan,nan,nan,nan
7.730425119400024,0.22397279739379883,0.7590924501419067,-0.204390287399292,-8.033294945448468,0.00037097930908203125,1.0,2.0,-5.0,nan,nan,nan,nan,nan
7.740757942199707,0.22920110821723938,0.7693338990211487,-0.21190476417541504,-8.403951459410381,0.0003437995910644531,1.0,2.0,-5.0,nan,nan,nan,nan,nan
7.750471591949463,0.22920110821723938,0.7693338990211487,-0.21190476417541504,-8.403951459410381,0.0003895759582519531,1.0,2.0,-5.0,nan,nan,nan,nan,nan
7.760520696640015,0.2328343391418457,0.7764557600021362,-0.21490216255187988,-8.636894378345424,0.00034356117248535156,1.0,2.0,-5.0,nan,nan,nan,nan,nan
7.770432949066162,0.2328343391418457,0.7764557600021362,-0.21490216255187988,-8.636894378345424,0.0003724098205566406,1.0,2.0,-5.0,nan,nan,nan,nan,nan
7.78086519241333,0.2365538775920868,0.7837582230567932,-0.2162492275238037,-8.863004959462927,0.0004737377166748047,1.0,2.0,-5.0,nan,nan,nan,nan,nan
7.790437459945679,0.2365538775920868,0.7837582230567932,-0.2162492275238037,-8.863004959462927,0.0003695487976074219,1.0,2.0,-5.0,nan,nan,nan,nan,nan
7.8004865646362305,0.24032434821128845,0.7912011742591858,-0.21589314937591553,-9.08690105601431,0.00040221214294433594,1.0,2.0,-5.0,nan,nan,nan,nan,nan
7.8103392124176025,0.24221301078796387,0.7949651479721069,-0.21505606174468994,-9.199519673840875,0.0003502368927001953,1.0,2.0,-5.0,nan,nan,nan,nan,nan
7.820469856262207,0.2440992295742035,0.7987532019615173,-0.2137666940689087,-9.31325481729598,0.0003764629364013672,1.0,2.0,-5.0,nan,nan,nan,nan,nan
7.83035135269165,0.24597977101802826,0.8025625944137573,-0.21201753616333008,-9.42851078655498,0.0003917217254638672,1.0,2.0,-5.0,nan,nan,nan,nan,nan
7.840474843978882,0.24971476197242737,0.8102336525917053,-0.20709967613220215,-9.664621918442442,0.0003523826599121094,1.0,2.0,-5.0,nan,nan,nan,nan,nan
7.850395679473877,0.25158828496932983,0.814105212688446,-0.2039027214050293,-9.78564335879361,0.00038552284240722656,1.0,2.0,-5.0,nan,nan,nan,nan,nan
7.8603715896606445,0.2575918436050415,0.8237770795822144,-0.19361066818237305,-10.032790479163879,0.0003533363342285156,1.0,2.0,-5.0,nan,nan,nan,nan,nan
7.87045431137085,0.260551393032074,0.8285914063453674,-0.18769466876983643,-10.158443118473794,0.0003705024719238281,1.0,2.0,-5.0,nan,nan,nan,nan,nan
7.8804543018341064,0.2634833753108978,0.8333898186683655,-0.18125319480895996,-10.284997537533524,0.0004093647003173828,1.0,2.0,-5.0,nan,nan,nan,nan,nan
7.890408754348755,0.2663879096508026,0.8381717801094055,-0.17427968978881836,-10.411987682842579,0.0003666877746582031,1.0,2.0,-5.0,nan,nan,nan,nan,nan
7.9005091190338135,0.27211442589759827,0.8476860523223877,-0.15874803066253662,-10.665378967260573,0.0004096031188964844,1.0,2.0,-5.0,nan,nan,nan,nan,nan
7.910324811935425,0.27493661642074585,0.852418839931488,-0.15016651153564453,-10.790926115590858,0.0003452301025390625,1.0,2.0,-5.0,nan,nan,nan,nan,nan
7.920425653457642,0.2777232527732849,0.857148289680481,-0.14103436470031738,-10.915258651772891,0.0004074573516845703,1.0,2.0,-5.0,nan,nan,nan,nan,nan
7.93035101890564,0.28048259019851685,0.8618655204772949,-0.13135409355163574,-11.03795516092461,0.000354766845703125,1.0,2.0,-5.0,nan,nan,nan,nan,nan
7.940380096435547,0.2859145700931549,0.8712760210037231,-0.11036491394042969,-11.278767661100412,0.0003719329833984375,1.0,2.0,-5.0,nan,nan,nan,nan,nan
7.950444936752319,0.2885831594467163,0.8759784698486328,-0.09908795356750488,-11.396981412470215,0.00038552284240722656,1.0,2.0,-5.0,nan,nan,nan,nan,nan
7.96032452583313,0.29121699929237366,0.8806872367858887,-0.0872950553894043,-11.513932697245282,0.0003464221954345703,1.0,2.0,-5.0,nan,nan,nan,nan,nan
7.97040581703186,0.2938136160373688,0.8854096531867981,-0.07500171661376953,-11.629855267395541,0.00036072731018066406,1.0,2.0,-5.0,nan,nan,nan,nan,nan
7.980329513549805,0.2991510331630707,0.8937660455703735,-0.04806101322174072,-11.859720599515276,0.0003752708435058594,1.0,2.0,-5.0,nan,nan,nan,nan,nan
7.990404367446899,0.30188798904418945,0.8974334001541138,-0.033472299575805664,-11.974335155338995,0.00036907196044921875,1.0,2.0,-5.0,nan,nan,nan,nan,nan
8.00047755241394,0.30509403347969055,0.9008811712265015,-0.020009398460388184,-12.086563675573487,0.00036525726318359375,1.0,2.0,-5.0,nan,nan,nan,nan,nan
8.010406494140625,0.31100672483444214,0.9029882550239563,-0.015662789344787598,-12.186560441616237,0.0003628730773925781,1.0,2.0,-5.0,nan,nan,nan,nan,nan
8.020464181900024,0.3197145462036133,0.9103368520736694,-0.014544367790222168,-12.348637555809912,0.00036597251892089844,1.0,2.0,-5.0,nan,nan,nan,nan,nan
8.030409812927246,0.32389745116233826,0.9142904281616211,-0.013683557510375977,-12.426766000570053,0.00037097930908203125,1.0,2.0,-5.0,nan,nan,nan,nan,nan
8.040395021438599,0.32809337973594666,0.9183417558670044,-0.012481689453125,-12.502928055040467,0.0003712177276611328,1.0,2.0,-5.0,nan,nan,nan,nan,nan
8.050422191619873,0.3323167562484741,0.9224820137023926,-0.010965585708618164,-12.577269112096491,0.0003807544708251953,1.0,2.0,-5.0,nan,nan,nan,nan,nan
8.060301303863525,0.33657920360565186,0.9267005324363708,-0.009118199348449707,-12.649944823776657,0.00035119056701660156,1.0,2.0,-5.0,nan,nan,nan,nan,nan
8.070387363433838,0.340888649225235,0.9309708476066589,-0.006945610046386719,-12.721136914953599,0.0003838539123535156,1.0,2.0,-5.0,nan,nan,nan,nan,nan
8.080327033996582,0.349575400352478,0.9397807717323303,-0.0017805099487304688,-12.859067084702163,0.0003609657287597656,1.0,2.0,-5.0,nan,nan,nan,nan,nan
8.090468168258667,0.35382169485092163,0.9444525837898254,0.0010091662406921387,-12.925131095305495,0.0006170272827148438,1.0,2.0,-5.0,nan,nan,nan,nan,nan
8.100447416305542,0.3591960370540619,0.9572225213050842,0.003895282745361328,-13.05151059315012,0.0003783702850341797,1.0,2.0,-5.0,nan,nan,nan,nan,nan
8.110379457473755,0.36039212346076965,0.9652388691902161,0.004048943519592285,-13.111745653098795,0.00037789344787597656,1.0,2.0,-5.0,nan,nan,nan,nan,nan
8.120383501052856,0.36155813932418823,0.973375678062439,0.0042986273765563965,-13.170083432542,0.00041103363037109375,1.0,2.0,-5.0,nan,nan,nan,nan,nan
8.13032603263855,0.3626227378845215,0.9815956354141235,0.0044901371002197266,-13.226722391188613,0.0003707408905029297,1.0,2.0,-5.0,nan,nan,nan,nan,nan
8.140411615371704,0.3644423186779022,0.9983342289924622,0.0045585036277771,-13.334932689416002,0.00037026405334472656,1.0,2.0,-5.0,nan,nan,nan,nan,nan
8.150264263153076,0.3651999235153198,1.0068401098251343,0.004339098930358887,-13.386660425664276,0.00033926963806152344,1.0,2.0,-5.0,nan,nan,nan,nan,nan
8.160298347473145,0.3657783567905426,1.0154361724853516,0.003957211971282959,-13.436955907440694,0.00033783912658691406,1.0,2.0,-5.0,nan,nan,nan,nan,nan
8.170506954193115,0.36618897318840027,1.0240740776062012,0.0033785104751586914,-13.485915986729214,0.00038123130798339844,1.0,2.0,-5.0,nan,nan,nan,nan,nan
8.180285692214966,0.3668999671936035,1.0322867631912231,0.0026323795318603516,-13.527628712565198,0.0003364086151123047,1.0,2.0,-5.0,nan,nan,nan,nan,nan
8.19042444229126,0.3680461347103119,1.0399740934371948,0.002042710781097412,-13.567075678907788,0.00039958953857421875,1.0,2.0,-5.0,nan,nan,nan,nan,nan
8.200359106063843,0.37038877606391907,1.0550191402435303,0.00168609619140625,-13.645572894610767,0.0003790855407714844,1.0,2.0,-5.0,nan,nan,nan,nan,nan
8.210328102111816,0.37157490849494934,1.0623944997787476,0.0018733739852905273,-13.68478725025349,0.00036215782165527344,1.0,2.0,-5.0,nan,nan,nan,nan,nan
8.220423460006714,0.3734434247016907,1.077826976776123,0.0013576745986938477,-13.755570991147678,0.000392913818359375,1.0,2.0,-5.0,nan,nan,nan,nan,nan
8.230297565460205,0.37450408935546875,1.0858228206634521,0.001354217529296875,-13.786999766616887,0.0003399848937988281,1.0,2.0,-5.0,nan,nan,nan,nan,nan
8.240352392196655,0.37572547793388367,1.0936087369918823,0.0014563798904418945,-13.815830437440423,0.0003619194030761719,1.0,2.0,-5.0,nan,nan,nan,nan,nan
8.250282526016235,0.3769757151603699,1.101292371749878,0.0018230080604553223,-13.844589782091159,0.00036907196044921875,1.0,2.0,-5.0,nan,nan,nan,nan,nan
8.260275840759277,0.37825846672058105,1.1091094017028809,0.0021356940269470215,-13.870823250800596,0.0003364086151123047,1.0,2.0,-5.0,nan,nan,nan,nan,nan
8.270423412322998,0.3796789050102234,1.1170016527175903,0.002317488193511963,-13.896112234110605,0.00036406517028808594,1.0,2.0,-5.0,nan,nan,nan,nan,nan
8.280277729034424,0.38300374150276184,1.1327236890792847,0.002660691738128662,-13.942213097577298,0.0003230571746826172,1.0,2.0,-5.0,nan,nan,nan,nan,nan
8.29036259651184,0.38477736711502075,1.140537142753601,0.002834618091583252,-13.964220387343085,0.00037598609924316406,1.0,2.0,-5.0,nan,nan,nan,nan,nan
8.300370454788208,0.3885340690612793,1.1559537649154663,0.003291487693786621,-14.007184645039452,0.0003268718719482422,1.0,2.0,-5.0,nan,nan,nan,nan,nan
8.310359001159668,0.3905150890350342,1.1635527610778809,0.003582477569580078,-14.028160689919421,0.00035309791564941406,1.0,2.0,-5.0,nan,nan,nan,nan,nan
8.320340633392334,0.3925650715827942,1.1710749864578247,0.003913164138793945,-14.048814145067553,0.0003871917724609375,1.0,2.0,-5.0,nan,nan,nan,nan,nan
8.330381393432617,0.39468470215797424,1.1785176992416382,0.0042838454246521,-14.069163107332448,0.0003387928009033203,1.0,2.0,-5.0,nan,nan,nan,nan,nan
8.340326070785522,0.39687514305114746,1.1858805418014526,0.004693210124969482,-14.089243626766658,0.00036025047302246094,1.0,2.0,-5.0,nan,nan,nan,nan,nan
8.350355386734009,0.39914393424987793,1.1931657791137695,0.005141079425811768,-14.10907617040457,0.0003731250762939453,1.0,2.0,-5.0,nan,nan,nan,nan,nan
8.360265016555786,0.4029184877872467,1.206855297088623,0.005374431610107422,-14.148037895400824,0.0003628730773925781,1.0,2.0,-5.0,nan,nan,nan,nan,nan
8.370414972305298,0.4041498005390167,1.2129322290420532,0.00451129674911499,-14.1645074219274,0.0003771781921386719,1.0,2.0,-5.0,nan,nan,nan,nan,nan
8.380298852920532,0.4059145152568817,1.2240773439407349,0.0015248656272888184,-14.195868423122924,0.00032830238342285156,1.0,2.0,-5.0,nan,nan,nan,nan,nan
8.390356302261353,0.4066540598869324,1.2294453382492065,4.374980926513672e-05,-14.211818735199063,0.00036835670471191406,1.0,2.0,-5.0,nan,nan,nan,nan,nan
8.400479316711426,0.40747353434562683,1.2345167398452759,-0.0013643503189086914,-14.227762581298746,0.0005848407745361328,1.0,2.0,-5.0,nan,nan,nan,nan,nan
8.410332202911377,0.4083583354949951,1.2392795085906982,-0.0026900768280029297,-14.24381191971965,0.0003485679626464844,1.0,2.0,-5.0,nan,nan,nan,nan,nan
8.420355319976807,0.4090909957885742,1.243843674659729,-0.004034876823425293,-14.260237751170887,0.0003752708435058594,1.0,2.0,-5.0,nan,nan,nan,nan,nan
8.430279970169067,0.4097020626068115,1.2481954097747803,-0.005412697792053223,-14.276841180157314,0.00033092498779296875,1.0,2.0,-5.0,nan,nan,nan,nan,nan
8.440398693084717,0.41110894083976746,1.2562954425811768,-0.007839679718017578,-14.30662848392208,0.0003609657287597656,1.0,2.0,-5.0,nan,nan,nan,nan,nan
8.450316905975342,0.4118846654891968,1.2601850032806396,-0.00889444351196289,-14.319036654515855,0.0003597736358642578,1.0,2.0,-5.0,nan,nan,nan,nan,nan
8.46029543876648,0.412670373916626,1.2639222145080566,-0.009871363639831543,-14.330334734212057,0.0003840923309326172,1.0,2.0,-5.0,nan,nan,nan,nan,nan
8.470372200012207,0.41346147656440735,1.2674791812896729,-0.010778546333312988,-14.34057853624094,0.00036144256591796875,1.0,2.0,-5.0,nan,nan,nan,nan,nan
8.480286836624146,0.4141908288002014,1.2732234001159668,-0.011672616004943848,-14.358453471969167,0.000335693359375,1.0,2.0,-5.0,nan,nan,nan,nan,nan
8.490341901779175,0.4140891432762146,1.275435209274292,-0.011732101440429688,-14.36623630016904,0.0003669261932373047,1.0,2.0,-5.0,nan,nan,nan,nan,nan
8.500535488128662,0.41370195150375366,1.2793949842453003,-0.011945009231567383,-14.379543814016888,0.0006108283996582031,1.0,2.0,-5.0,nan,nan,nan,nan,nan
8.51039719581604,0.4134097695350647,1.2811394929885864,-0.012086272239685059,-14.38507222480622,0.0005936622619628906,1.0,2.0,-5.0,nan,nan,nan,nan,nan
8.52032995223999,0.41304826736450195,1.2827235460281372,-0.012248992919921875,-14.38984453548323,0.0003466606140136719,1.0,2.0,-5.0,nan,nan,nan,nan,nan
8.530285835266113,0.4126165807247162,1.2841416597366333,-0.012431144714355469,-14.393855871624584,0.0003275871276855469,1.0,2.0,-5.0,nan,nan,nan,nan,nan
8.540315866470337,0.4115360379219055,1.2864700555801392,-0.012852787971496582,-14.399536051373005,0.00037360191345214844,1.0,2.0,-5.0,nan,nan,nan,nan,nan
8.55029821395874,0.410889208316803,1.2873783111572266,-0.01309967041015625,-14.401185806257995,0.0006122589111328125,1.0,2.0,-5.0,nan,nan,nan,nan,nan
8.560235738754272,0.41016554832458496,1.288112998008728,-0.013363003730773926,-14.402005885060785,0.0003287792205810547,1.0,2.0,-5.0,nan,nan,nan,nan,nan
8.570460557937622,0.409367173910141,1.288680076599121,-0.013640165328979492,-14.402092109034955,0.00038814544677734375,1.0,2.0,-5.0,nan,nan,nan,nan,nan
8.580266952514648,0.4076906740665436,1.2896124124526978,-0.014164328575134277,-14.401962062537184,0.00034165382385253906,1.0,2.0,-5.0,nan,nan,nan,nan,nan
8.59034538269043,0.4068370759487152,1.290035605430603,-0.014398336410522461,-14.401906366750168,0.00037479400634765625,1.0,2.0,-5.0,nan,nan,nan,nan,nan
8.600391864776611,0.4059731960296631,1.2904306650161743,-0.014622926712036133,-14.401860409558829,0.0003783702850341797,1.0,2.0,-5.0,nan,nan,nan,nan,nan
8.61030912399292,0.40391403436660767,1.2896653413772583,-0.01489865779876709,-14.401820380609426,0.0003676414489746094,1.0,2.0,-5.0,nan,nan,nan,nan,nan
8.62031078338623,0.4018654525279999,1.2888908386230469,-0.015154004096984863,-14.40184422111567,0.00036644935607910156,1.0,2.0,-5.0,nan,nan,nan,nan,nan
8.630231142044067,0.39982935786247253,1.2881046533584595,-0.015390157699584961,-14.401875706084104,0.00034928321838378906,1.0,2.0,-5.0,nan,nan,nan,nan,nan
8.640297651290894,0.3957892060279846,1.2865016460418701,-0.01580226421356201,-14.402034823494983,0.00035691261291503906,1.0,2.0,-5.0,nan,nan,nan,nan,nan
8.650279998779297,0.3937852680683136,1.28568434715271,-0.015987753868103027,-14.402123706689064,0.00039887428283691406,1.0,2.0,-5.0,nan,nan,nan,nan,nan
8.660277843475342,0.38981300592422485,1.2840163707733154,-0.01630115509033203,-14.402311511040407,0.00033402442932128906,1.0,2.0,-5.0,nan,nan,nan,nan,nan
8.67037320137024,0.3878472149372101,1.2831647396087646,-0.016430377960205078,-14.402408825581631,0.0003917217254638672,1.0,2.0,-5.0,nan,nan,nan,nan,nan
8.680273056030273,0.3858969211578369,1.2823008298873901,-0.016542553901672363,-14.402507565343877,0.0003261566162109375,1.0,2.0,-5.0,nan,nan,nan,nan,nan
8.690324306488037,0.3839465379714966,1.2814223766326904,-0.016640067100524902,-14.402606939825745,0.0003666877746582031,1.0,2.0,-5.0,nan,nan,nan,nan,nan
8.700352907180786,0.3801037669181824,1.2796275615692139,-0.016808748245239258,-14.402881220824415,0.0003707408905029297,1.0,2.0,-5.0,nan,nan,nan,nan,nan
8.71029257774353,0.3782145380973816,1.2787106037139893,-0.016872525215148926,-14.403019011838172,0.00036454200744628906,1.0,2.0,-5.0,nan,nan,nan,nan,nan
8.720222473144531,0.3763487637042999,1.2777810096740723,-0.016923904418945312,-14.403158422920225,0.000335693359375,1.0,2.0,-5.0,nan,nan,nan,nan,nan
8.730284690856934,0.3745077848434448,1.2768381834030151,-0.016963958740234375,-14.40329803979162,0.0003521442413330078,1.0,2.0,-5.0,nan,nan,nan,nan,nan
8.740262985229492,0.37250611186027527,1.275531530380249,-0.01610386371612549,-14.403439103727035,0.00035071372985839844,1.0,2.0,-5.0,nan,nan,nan,nan,nan
8.750341653823853,0.3685963749885559,1.2729054689407349,-0.014436841011047363,-14.403734519839631,0.0006287097930908203,1.0,2.0,-5.0,nan,nan,nan,nan,nan
8.760280847549438,0.3666926622390747,1.2715880870819092,-0.013628482818603516,-14.403883788820728,0.00033211708068847656,1.0,2.0,-5.0,nan,nan,nan,nan,nan
8.77038311958313,0.3648236095905304,1.2702661752700806,-0.012833237648010254,-14.403976309970288,0.00041604042053222656,1.0,2.0,-5.0,nan,nan,nan,nan,nan
8.780373096466064,0.36119359731674194,1.2676093578338623,-0.011283278465270996,-14.404157386354287,0.00032210350036621094,1.0,2.0,-5.0,nan,nan,nan,nan,nan
8.79028582572937,0.3594339191913605,1.26627516746521,-0.01052844524383545,-14.404245071584116,0.0003490447998046875,1.0,2.0,-5.0,nan,nan,nan,nan,nan
8.800819396972656,0.3577117919921875,1.2649375200271606,-0.009801864624023438,-14.404330388089871,0.0005197525024414062,1.0,2.0,-5.0,nan,nan,nan,nan,nan
8.810338258743286,0.3560277819633484,1.263597011566162,-0.009088516235351562,-14.40441287280754,0.00033974647521972656,1.0,2.0,-5.0,nan,nan,nan,nan,nan
8.821159362792969,0.3527761697769165,1.2609084844589233,-0.007700562477111816,-14.404571403530444,0.0003380775451660156,1.0,2.0,-5.0,nan,nan,nan,nan,nan
8.830275297164917,0.35122543573379517,1.259554147720337,-0.007028460502624512,-14.404645934860529,0.0003349781036376953,1.0,2.0,-5.0,nan,nan,nan,nan,nan
8.841228246688843,0.34971368312835693,1.258198618888855,-0.006369113922119141,-14.404797098919568,0.0003457069396972656,1.0,2.0,-5.0,nan,nan,nan,nan,nan
8.85029673576355,0.3482411205768585,1.2568421363830566,-0.005737662315368652,-14.404946370417697,0.00041413307189941406,1.0,2.0,-5.0,nan,nan,nan,nan,nan
8.860371112823486,0.3482411205768585,1.2568421363830566,-0.005737662315368652,-14.404946370417697,0.0003666877746582031,1.0,2.0,-5.0,nan,nan,nan,nan,nan
8.870311975479126,0.3442682921886444,1.2538741827011108,-0.004996180534362793,-14.405352051773944,0.00037097930908203125,1.0,2.0,-5.0,nan,nan,nan,nan,nan
