time,x,y,z,yaw,ctrl_comp_time,x_ref,y_ref,z_ref,yaw_ref,throttle,roll_rate,pitch_rate,yaw_rate
5.000495195388794,-0.00032469158759340644,-0.023843953385949135,-1.6676843166351318,-0.1954832759372908,0.0003921985626220703,1.0,2.0,-5.0,nan,nan,nan,nan,nan
5.010199785232544,-0.004123968537896872,-0.024050120264291763,-1.6945137977600098,-0.20338605212306665,0.0006809234619140625,1.0,2.0,-5.0,nan,nan,nan,nan,nan
5.020268678665161,-0.00599324656650424,-0.02412276528775692,-1.7080020904541016,-0.207151952099201,0.0007550716400146484,1.0,2.0,-5.0,nan,nan,nan,nan,nan
5.030256032943726,-0.007836829870939255,-0.0241796113550663,-1.721529483795166,-0.21104721668300236,0.0005314350128173828,1.0,2.0,-5.0,nan,nan,nan,nan,nan
5.040188550949097,-0.009739920496940613,-0.023917073383927345,-1.7346289157867432,-0.2148045312810209,0.00047516822814941406,1.0,2.0,-5.0,nan,nan,nan,nan,nan
5.050309181213379,-0.013463424518704414,-0.023360013961791992,-1.7610149383544922,-0.22186156904161097,0.0007736682891845703,1.0,2.0,-5.0,nan,nan,nan,nan,nan
5.0602312088012695,-0.015283710323274136,-0.023065639659762383,-1.7743544578552246,-0.2250693667182223,0.0007660388946533203,1.0,2.0,-5.0,nan,nan,nan,nan,nan
5.070245027542114,-0.017077729105949402,-0.022761628031730652,-1.787825345993042,-0.22805395293864078,0.0005340576171875,1.0,2.0,-5.0,nan,nan,nan,nan,nan
5.080246925354004,-0.018847063183784485,-0.022448590025305748,-1.8014404773712158,-0.23081333064303017,0.0005285739898681641,1.0,2.0,-5.0,nan,nan,nan,nan,nan
5.090172529220581,-0.022350523620843887,-0.021795935928821564,-1.8291187286376953,-0.235663046343954,0.0004994869232177734,1.0,2.0,-5.0,nan,nan,nan,nan,nan
5.100368499755859,-0.024088820442557335,-0.021456165239214897,-1.843179702758789,-0.2381074790899243,0.00041794776916503906,1.0,2.0,-5.0,nan,nan,nan,nan,nan
5.110241889953613,-0.02581082098186016,-0.02110765129327774,-1.8573851585388184,-0.2403291336174889,0.0005707740783691406,1.0,2.0,-5.0,nan,nan,nan,nan,nan
5.120150327682495,-0.027519186958670616,-0.02075020782649517,-1.8717308044433594,-0.2423132492278695,0.00045990943908691406,1.0,2.0,-5.0,nan,nan,nan,nan,nan
5.1302618980407715,-0.030906284227967262,-0.02000860869884491,-1.9008264541625977,-0.2455666394248585,0.0006673336029052734,1.0,2.0,-5.0,nan,nan,nan,nan,nan
5.140138387680054,-0.03259102255105972,-0.019624261185526848,-1.9155685901641846,-0.24683632447112347,0.0004489421844482422,1.0,2.0,-5.0,nan,nan,nan,nan,nan
5.150258302688599,-0.034274227917194366,-0.019230924546718597,-1.9304349422454834,-0.24786735609888352,0.0005271434783935547,1.0,2.0,-5.0,nan,nan,nan,nan,nan
5.160315036773682,-0.035414740443229675,-0.01867145672440529,-1.9459781646728516,-0.2486647135457863,0.0008497238159179688,1.0,2.0,-5.0,nan,nan,nan,nan,nan
5.1702070236206055,-0.03777385130524635,-0.017531894147396088,-1.9773695468902588,-0.24994746963815018,0.00047516822814941406,1.0,2.0,-5.0,nan,nan,nan,nan,nan
5.180284261703491,-0.038987476378679276,-0.016957661136984825,-1.9932126998901367,-0.2504524206504935,0.0006265640258789062,1.0,2.0,-5.0,nan,nan,nan,nan,nan
5.190232038497925,-0.040228597819805145,-0.01638157293200493,-2.0091512203216553,-0.250722070101983,0.0005052089691162109,1.0,2.0,-5.0,nan,nan,nan,nan,nan
5.200408220291138,-0.04150097072124481,-0.015804991126060486,-2.0251832008361816,-0.25075867695769527,0.00044465065002441406,1.0,2.0,-5.0,nan,nan,nan,nan,nan
5.210211992263794,-0.044155266135931015,-0.014657442457973957,-2.0575215816497803,-0.25013204845466697,0.0006425380706787109,1.0,2.0,-5.0,nan,nan,nan,nan,nan
5.2201807498931885,-0.04554563760757446,-0.014090624637901783,-2.073824882507324,-0.2494736195207015,0.0005908012390136719,1.0,2.0,-5.0,nan,nan,nan,nan,nan
5.230288505554199,-0.04842681437730789,-0.012984652072191238,-2.1066954135894775,-0.2473590415532475,0.0005805492401123047,1.0,2.0,-5.0,nan,nan,nan,nan,nan
5.2402098178863525,-0.04995119199156761,-0.012450750917196274,-2.123260974884033,-0.24590181292130966,0.0005924701690673828,1.0,2.0,-5.0,nan,nan,nan,nan,nan
5.250249862670898,-0.051537685096263885,-0.011933945119380951,-2.1399126052856445,-0.24421892617048488,0.0005159378051757812,1.0,2.0,-5.0,nan,nan,nan,nan,nan
5.260304927825928,-0.05319097265601158,-0.011437804438173771,-2.156648635864258,-0.24230666097722497,0.0009856224060058594,1.0,2.0,-5.0,nan,nan,nan,nan,nan
5.270201683044434,-0.0549159049987793,-0.010966186411678791,-2.1734683513641357,-0.24016571499069927,0.0004825592041015625,1.0,2.0,-5.0,nan,nan,nan,nan,nan
5.280267953872681,-0.056717365980148315,-0.01052333228290081,-2.190370798110962,-0.23779702922466822,0.0007534027099609375,1.0,2.0,-5.0,nan,nan,nan,nan,nan
5.290243864059448,-0.05908019468188286,-0.00933635700494051,-2.226508378982544,-0.23250547318311945,0.0004951953887939453,1.0,2.0,-5.0,nan,nan,nan,nan,nan
5.300417900085449,-0.06041835993528366,-0.008809272199869156,-2.2445456981658936,-0.22956687607964865,0.00041747093200683594,1.0,2.0,-5.0,nan,nan,nan,nan,nan
5.310260534286499,-0.06184781715273857,-0.008326347917318344,-2.262469530105591,-0.22633681074790263,0.0006418228149414062,1.0,2.0,-5.0,nan,nan,nan,nan,nan
5.32023811340332,-0.06336371600627899,-0.007887632586061954,-2.2802345752716064,-0.22280148366523872,0.0007460117340087891,1.0,2.0,-5.0,nan,nan,nan,nan,nan
5.330344200134277,-0.06662794947624207,-0.00713718868792057,-2.315142869949341,-0.2149845602709368,0.0006284713745117188,1.0,2.0,-5.0,nan,nan,nan,nan,nan
5.340174674987793,-0.0683605894446373,-0.00682023074477911,-2.3322255611419678,-0.21085755882671212,0.0004937648773193359,1.0,2.0,-5.0,nan,nan,nan,nan,nan
5.350235939025879,-0.07014943659305573,-0.006537593435496092,-2.349027395248413,-0.20670854108771428,0.0005128383636474609,1.0,2.0,-5.0,nan,nan,nan,nan,nan
5.3602824211120605,-0.07198643684387207,-0.006285088136792183,-2.3655283451080322,-0.20262556029213347,0.0007269382476806641,1.0,2.0,-5.0,nan,nan,nan,nan,nan
5.370164632797241,-0.07577604800462723,-0.005862003192305565,-2.397566080093384,-0.19498857204001732,0.0004858970642089844,1.0,2.0,-5.0,nan,nan,nan,nan,nan
5.380239963531494,-0.07771418988704681,-0.005681963637471199,-2.413079261779785,-0.19147634423019072,0.0006296634674072266,1.0,2.0,-5.0,nan,nan,nan,nan,nan
5.390148878097534,-0.07967155426740646,-0.0055131008848547935,-2.42824387550354,-0.18833103213480917,0.0004832744598388672,1.0,2.0,-5.0,nan,nan,nan,nan,nan
5.400431871414185,-0.081641286611557,-0.005350116640329361,-2.4430530071258545,-0.18561014821015348,0.0004744529724121094,1.0,2.0,-5.0,nan,nan,nan,nan,nan
5.410355091094971,-0.08695550262928009,-0.006260583642870188,-2.4709339141845703,-0.18164522874394934,0.0007600784301757812,1.0,2.0,-5.0,nan,nan,nan,nan,nan
5.42021632194519,-0.0902639627456665,-0.007299406919628382,-2.484013795852661,-0.1803499935736616,0.0005362033843994141,1.0,2.0,-5.0,nan,nan,nan,nan,nan
5.430305004119873,-0.09353619068861008,-0.008298194035887718,-2.4967379570007324,-0.17966061745515466,0.0005991458892822266,1.0,2.0,-5.0,nan,nan,nan,nan,nan
5.440231561660767,-0.09676631540060043,-0.00925120897591114,-2.5091021060943604,-0.1796063449862364,0.0005536079406738281,1.0,2.0,-5.0,nan,nan,nan,nan,nan
5.450251817703247,-0.09676631540060043,-0.00925120897591114,-2.5091021060943604,-0.1796063449862364,0.0005776882171630859,1.0,2.0,-5.0,nan,nan,nan,nan,nan
5.4603941440582275,-0.10618811100721359,-0.01177022885531187,-2.544004201889038,-0.1837913227212815,0.001056671142578125,1.0,2.0,-5.0,nan,nan,nan,nan,nan
5.470221042633057,-0.10618811100721359,-0.01177022885531187,-2.544004201889038,-0.1837913227212815,0.0008339881896972656,1.0,2.0,-5.0,nan,nan,nan,nan,nan
5.480267524719238,-0.11215731501579285,-0.013106525875627995,-2.5653998851776123,-0.19021715899907077,0.0005142688751220703,1.0,2.0,-5.0,nan,nan,nan,nan,nan
5.4903037548065186,-0.11215731501579285,-0.013106525875627995,-2.5653998851776123,-0.19021715899907077,0.0007119178771972656,1.0,2.0,-5.0,nan,nan,nan,nan,nan
5.500566005706787,-0.1205853670835495,-0.014523215591907501,-2.5944223403930664,-0.20490682697631124,0.0006668567657470703,1.0,2.0,-5.0,nan,nan,nan,nan,nan
5.510256052017212,-0.1205853670835495,-0.014523215591907501,-2.5944223403930664,-0.20490682697631124,0.0007157325744628906,1.0,2.0,-5.0,nan,nan,nan,nan,nan
5.520172595977783,-0.12583954632282257,-0.01502634584903717,-2.611567974090576,-0.2176545256570842,0.0004837512969970703,1.0,2.0,-5.0,nan,nan,nan,nan,nan
5.5303263664245605,-0.12583954632282257,-0.01502634584903717,-2.611567974090576,-0.2176545256570842,0.0006167888641357422,1.0,2.0,-5.0,nan,nan,nan,nan,nan
5.540190935134888,-0.13740311563014984,-0.019625047221779823,-2.63327956199646,-0.23897877997536693,0.000469207763671875,1.0,2.0,-5.0,nan,nan,nan,nan,nan
5.550249814987183,-0.13740311563014984,-0.019625047221779823,-2.63327956199646,-0.23897877997536693,0.0005242824554443359,1.0,2.0,-5.0,nan,nan,nan,nan,nan
5.560320854187012,-0.14582446217536926,-0.023372720927000046,-2.6454615592956543,-0.24921844689063732,0.0007910728454589844,1.0,2.0,-5.0,nan,nan,nan,nan,nan
5.570235967636108,-0.14582446217536926,-0.023372720927000046,-2.6454615592956543,-0.24921844689063732,0.0005443096160888672,1.0,2.0,-5.0,nan,nan,nan,nan,nan
5.580247640609741,-0.15685029327869415,-0.027000440284609795,-2.661219596862793,-0.2487205630782782,0.0005774497985839844,1.0,2.0,-5.0,nan,nan,nan,nan,nan
5.5901710987091064,-0.15685029327869415,-0.027000440284609795,-2.661219596862793,-0.2487205630782782,0.00049591064453125,1.0,2.0,-5.0,nan,nan,nan,nan,nan
5.60041069984436,-0.16297324001789093,-0.027751682326197624,-2.6702427864074707,-0.23894472828326002,0.0004749298095703125,1.0,2.0,-5.0,nan,nan,nan,nan,nan
5.610381364822388,-0.16297324001789093,-0.027751682326197624,-2.6702427864074707,-0.23894472828326002,0.0007827281951904297,1.0,2.0,-5.0,nan,nan,nan,nan,nan
5.620189905166626,-0.17004968225955963,-0.025687657296657562,-2.6820976734161377,-0.21601046031266852,0.0004870891571044922,1.0,2.0,-5.0,nan,nan,nan,nan,nan
5.630267143249512,-0.17004968225955963,-0.025687657296657562,-2.6820976734161377,-0.21601046031266852,0.0006206035614013672,1.0,2.0,-5.0,nan,nan,nan,nan,nan
5.64020562171936,-0.17323003709316254,-0.021816248074173927,-2.689256429672241,-0.19735488388787825,0.0004982948303222656,1.0,2.0,-5.0,nan,nan,nan,nan,nan
5.650218725204468,-0.17323003709316254,-0.021816248074173927,-2.689256429672241,-0.19735488388787825,0.0005357265472412109,1.0,2.0,-5.0,nan,nan,nan,nan,nan
5.6602559089660645,-0.1751699447631836,-0.01581788994371891,-2.696033239364624,0.8430009814281656,0.0008366107940673828,1.0,2.0,-5.0,nan,nan,nan,nan,nan
5.670194149017334,-0.1748170107603073,-0.012288205325603485,-2.6979429721832275,0.8538220401983393,0.00048160552978515625,1.0,2.0,-5.0,nan,nan,nan,nan,nan
5.680206060409546,-0.17474883794784546,-0.008232385851442814,-2.69985032081604,0.8648072462887579,0.0005025863647460938,1.0,2.0,-5.0,nan,nan,nan,nan,nan
5.690231561660767,-0.17496676743030548,-0.003666853765025735,-2.701766014099121,0.8760042776359497,0.0005133152008056641,1.0,2.0,-5.0,nan,nan,nan,nan,nan
5.700420379638672,-0.17623372375965118,0.0068736607208848,-2.705601453781128,0.897746527150276,0.0008156299591064453,1.0,2.0,-5.0,nan,nan,nan,nan,nan
5.710258722305298,-0.17728926241397858,0.012818926014006138,-2.7075517177581787,0.9077539799901289,0.0006837844848632812,1.0,2.0,-5.0,nan,nan,nan,nan,nan
5.720271587371826,-0.17863070964813232,0.019193217158317566,-2.709545135498047,0.9170510346992209,0.0006670951843261719,1.0,2.0,-5.0,nan,nan,nan,nan,nan
5.730285406112671,-0.18026064336299896,0.02597947046160698,-2.7115986347198486,0.925713141408562,0.0005865097045898438,1.0,2.0,-5.0,nan,nan,nan,nan,nan
5.7401769161224365,-0.18440912663936615,0.04084617272019386,-2.715998888015747,0.9345930292717242,0.00046634674072265625,1.0,2.0,-5.0,nan,nan,nan,nan,nan
5.7502827644348145,-0.18687260150909424,0.04884618893265724,-2.7184016704559326,0.9349417623112076,0.0005714893341064453,1.0,2.0,-5.0,nan,nan,nan,nan,nan
5.7602317333221436,-0.18957601487636566,0.05718845874071121,-2.7209537029266357,0.9349066413790548,0.0007700920104980469,1.0,2.0,-5.0,nan,nan,nan,nan,nan
5.770242929458618,-0.19250312447547913,0.06584174931049347,-2.723654270172119,0.9344975646747256,0.0005166530609130859,1.0,2.0,-5.0,nan,nan,nan,nan,nan
5.780301809310913,-0.19896984100341797,0.08395519107580185,-2.7294864654541016,0.9325882586476897,0.0005776882171630859,1.0,2.0,-5.0,nan,nan,nan,nan,nan
5.790215492248535,-0.19909366965293884,0.09717007726430893,-2.731558084487915,0.9311752962645188,0.0004794597625732422,1.0,2.0,-5.0,nan,nan,nan,nan,nan
5.800403833389282,-0.19936417043209076,0.110536128282547,-2.7337803840637207,0.924423185841605,0.00045800209045410156,1.0,2.0,-5.0,nan,nan,nan,nan,nan
5.8101582527160645,-0.19976197183132172,0.1240093782544136,-2.736091375350952,0.9172806049776796,0.0005254745483398438,1.0,2.0,-5.0,nan,nan,nan,nan,nan
5.820314168930054,-0.20087987184524536,0.15116305649280548,-2.7406675815582275,0.9034054491736496,0.0007889270782470703,1.0,2.0,-5.0,nan,nan,nan,nan,nan
5.830291032791138,-0.20153170824050903,0.16480928659439087,-2.742863655090332,0.8969531989916206,0.0006048679351806641,1.0,2.0,-5.0,nan,nan,nan,nan,nan
5.840181112289429,-0.20217843353748322,0.17848749458789825,-2.7449963092803955,0.8907880759100444,0.0005254745483398438,1.0,2.0,-5.0,nan,nan,nan,nan,nan
5.850295066833496,-0.20277617871761322,0.19219034910202026,-2.747056245803833,0.8847490898719917,0.0005314350128173828,1.0,2.0,-5.0,nan,nan,nan,nan,nan
5.860363960266113,-0.20367330312728882,0.21964798867702484,-2.750903844833374,0.8722978472199744,0.0008373260498046875,1.0,2.0,-5.0,nan,nan,nan,nan,nan
5.870181083679199,-0.2039131075143814,0.233395054936409,-2.7526745796203613,0.8656098103017702,0.0005562305450439453,1.0,2.0,-5.0,nan,nan,nan,nan,nan
5.880242347717285,-0.20397306978702545,0.247148796916008,-2.7543368339538574,0.8586722966748991,0.0006084442138671875,1.0,2.0,-5.0,nan,nan,nan,nan,nan
5.890175819396973,-0.20344635844230652,0.2746679186820984,-2.757322072982788,0.8431394333631766,0.0004394054412841797,1.0,2.0,-5.0,nan,nan,nan,nan,nan
5.900487899780273,-0.20281636714935303,0.2884311378002167,-2.7586348056793213,0.8344299523068278,0.00047326087951660156,1.0,2.0,-5.0,nan,nan,nan,nan,nan
5.910367965698242,-0.20191866159439087,0.30219635367393494,-2.759821891784668,0.825026493239169,0.0009615421295166016,1.0,2.0,-5.0,nan,nan,nan,nan,nan
5.920213937759399,-0.19785046577453613,0.31672611832618713,-2.7615504264831543,0.8148885893067235,0.0005543231964111328,1.0,2.0,-5.0,nan,nan,nan,nan,nan
5.930285692214966,-0.19335326552391052,0.331255704164505,-2.7631313800811768,0.7987926190126423,0.0005791187286376953,1.0,2.0,-5.0,nan,nan,nan,nan,nan
5.940168857574463,-0.18304958939552307,0.36031872034072876,-2.7658493518829346,0.7634609647067054,0.00048422813415527344,1.0,2.0,-5.0,nan,nan,nan,nan,nan
5.950283527374268,-0.17723917961120605,0.37485218048095703,-2.7669854164123535,0.7441473527188059,0.0008819103240966797,1.0,2.0,-5.0,nan,nan,nan,nan,nan
5.960198879241943,-0.17099788784980774,0.3893853724002838,-2.7679710388183594,0.7239898431319032,0.0011057853698730469,1.0,2.0,-5.0,nan,nan,nan,nan,nan
5.9701995849609375,-0.16433660686016083,0.40391838550567627,-2.7688074111938477,0.7031151112619469,0.0004963874816894531,1.0,2.0,-5.0,nan,nan,nan,nan,nan
5.9802587032318115,-0.1498110443353653,0.43298545479774475,-2.7700438499450684,0.6598746956499778,0.0005412101745605469,1.0,2.0,-5.0,nan,nan,nan,nan,nan
5.990199089050293,-0.14198161661624908,0.4475204050540924,-2.770451545715332,0.6378723396999473,0.00044226646423339844,1.0,2.0,-5.0,nan,nan,nan,nan,nan
6.000426769256592,-0.13380035758018494,0.46205630898475647,-2.77072811126709,0.6158519503682873,0.0004589557647705078,1.0,2.0,-5.0,nan,nan,nan,nan,nan
6.010321378707886,-0.1252877414226532,0.476593017578125,-2.7708842754364014,0.5939875494973026,0.0008504390716552734,1.0,2.0,-5.0,nan,nan,nan,nan,nan
6.020185708999634,-0.10711327940225601,0.5057022571563721,-2.770881414413452,0.5506631857483846,0.0005404949188232422,1.0,2.0,-5.0,nan,nan,nan,nan,nan
6.030174493789673,-0.09760046005249023,0.5202562212944031,-2.770738363265991,0.529387908771967,0.0004923343658447266,1.0,2.0,-5.0,nan,nan,nan,nan,nan
6.040213584899902,-0.08784087747335434,0.5348091721534729,-2.7705042362213135,0.5086363763554345,0.0005118846893310547,1.0,2.0,-5.0,nan,nan,nan,nan,nan
6.0502142906188965,-0.07647155970335007,0.5456658601760864,-2.7701146602630615,0.4885404536272224,0.0005497932434082031,1.0,2.0,-5.0,nan,nan,nan,nan,nan
6.060247421264648,-0.05317338556051254,0.5675856471061707,-2.7692031860351562,0.44860121630819094,0.0006330013275146484,1.0,2.0,-5.0,nan,nan,nan,nan,nan
6.070264577865601,-0.041282087564468384,0.5786594748497009,-2.7687954902648926,0.42979979175929706,0.0005066394805908203,1.0,2.0,-5.0,nan,nan,nan,nan,nan
6.080213308334351,-0.029214031994342804,0.5898247957229614,-2.768479585647583,0.41182935097960505,0.0005376338958740234,1.0,2.0,-5.0,nan,nan,nan,nan,nan
6.090178728103638,-0.004806599114090204,0.6123816967010498,-2.7682361602783203,0.37793562617327603,0.00047469139099121094,1.0,2.0,-5.0,nan,nan,nan,nan,nan
6.10048246383667,0.007463263347744942,0.6237586736679077,-2.7683537006378174,0.36209855173303357,0.0005099773406982422,1.0,2.0,-5.0,nan,nan,nan,nan,nan
6.110257387161255,0.019730426371097565,0.6351867318153381,-2.7686548233032227,0.3467747310932431,0.0008268356323242188,1.0,2.0,-5.0,nan,nan,nan,nan,nan
6.12021803855896,0.031960345804691315,0.6466513872146606,-2.7691566944122314,0.3317767242857738,0.00048232078552246094,1.0,2.0,-5.0,nan,nan,nan,nan,nan
6.130243301391602,0.04411955177783966,0.6581358313560486,-2.769876718521118,0.3169276947122217,0.0005257129669189453,1.0,2.0,-5.0,nan,nan,nan,nan,nan
6.140220880508423,0.0680968165397644,0.6810854077339172,-2.7720577716827393,0.2871080506858852,0.0004584789276123047,1.0,2.0,-5.0,nan,nan,nan,nan,nan
6.150256633758545,0.07983800023794174,0.6925049424171448,-2.7735495567321777,0.2719463430077461,0.000583648681640625,1.0,2.0,-5.0,nan,nan,nan,nan,nan
6.160266399383545,0.09138733893632889,0.7038548588752747,-2.7753076553344727,0.2566393386441715,0.0005557537078857422,1.0,2.0,-5.0,nan,nan,nan,nan,nan
6.170256853103638,0.10386143624782562,0.7137672305107117,-2.777595043182373,0.2410863322697323,0.0005459785461425781,1.0,2.0,-5.0,nan,nan,nan,nan,nan
6.180323123931885,0.12808667123317719,0.7332687973976135,-2.782832145690918,0.20681108029405876,0.0006647109985351562,1.0,2.0,-5.0,nan,nan,nan,nan,nan
6.190236806869507,0.13980409502983093,0.7428057789802551,-2.785733938217163,0.1894466746747463,0.0005335807800292969,1.0,2.0,-5.0,nan,nan,nan,nan,nan
6.200462102890015,0.15123911201953888,0.7521669864654541,-2.7887935638427734,0.1720287341555689,0.0006396770477294922,1.0,2.0,-5.0,nan,nan,nan,nan,nan
6.210251808166504,0.16237875819206238,0.7613291144371033,-2.7919912338256836,0.15466341782595622,0.0006806850433349609,1.0,2.0,-5.0,nan,nan,nan,nan,nan
6.220163345336914,0.18372884392738342,0.7789638042449951,-2.7987380027770996,0.12064926204385523,0.0005700588226318359,1.0,2.0,-5.0,nan,nan,nan,nan,nan
6.2302186489105225,0.19391991198062897,0.7873907685279846,-2.802259922027588,0.10428654768067148,0.0004885196685791016,1.0,2.0,-5.0,nan,nan,nan,nan,nan
6.240169286727905,0.20377708971500397,0.7955275774002075,-2.8058650493621826,0.08853287737586794,0.0004417896270751953,1.0,2.0,-5.0,nan,nan,nan,nan,nan
6.250243663787842,0.21329499781131744,0.8033520579338074,-2.809541702270508,0.0735297247458098,0.0005638599395751953,1.0,2.0,-5.0,nan,nan,nan,nan,nan
6.260270833969116,0.23130187392234802,0.8179759979248047,-2.817063331604004,0.04615616608802617,0.0005767345428466797,1.0,2.0,-5.0,nan,nan,nan,nan,nan
6.270189523696899,0.2397891879081726,0.8247321844100952,-2.8208835124969482,0.03399745565838172,0.0005567073822021484,1.0,2.0,-5.0,nan,nan,nan,nan,nan
6.280179977416992,0.2479337751865387,0.8310902118682861,-2.8247265815734863,0.022967954934212997,0.0005893707275390625,1.0,2.0,-5.0,nan,nan,nan,nan,nan
6.290228843688965,0.25573837757110596,0.8370292782783508,-2.8285787105560303,0.013104270560436448,0.0004601478576660156,1.0,2.0,-5.0,nan,nan,nan,nan,nan
6.300549268722534,0.2713507413864136,0.8495934009552002,-2.835636615753174,-0.0028871101785973297,0.0007612705230712891,1.0,2.0,-5.0,nan,nan,nan,nan,nan
6.3102803230285645,0.27868005633354187,0.8552033305168152,-2.839035749435425,-0.007995807596229476,0.00047707557678222656,1.0,2.0,-5.0,nan,nan,nan,nan,nan
6.320262670516968,0.2857186794281006,0.8603963255882263,-2.8422560691833496,-0.010404375875137428,0.0005831718444824219,1.0,2.0,-5.0,nan,nan,nan,nan,nan
6.330216884613037,0.292481392621994,0.8651816844940186,-2.8452587127685547,-0.009976465483879704,0.0004825592041015625,1.0,2.0,-5.0,nan,nan,nan,nan,nan
6.340174674987793,0.30522972345352173,0.8735238313674927,-2.8505358695983887,-0.001604729894129464,0.00045680999755859375,1.0,2.0,-5.0,nan,nan,nan,nan,nan
6.3503007888793945,0.3112390637397766,0.8770631551742554,-2.852799654006958,0.0052588829230150735,0.0005695819854736328,1.0,2.0,-5.0,nan,nan,nan,nan,nan
6.360312223434448,0.3169879913330078,0.8801682591438293,-2.854814052581787,0.013076140254687063,0.0007722377777099609,1.0,2.0,-5.0,nan,nan,nan,nan,nan
6.370264291763306,0.3225218951702118,0.8828375935554504,-2.8565797805786133,0.021505950256145767,0.0008401870727539062,1.0,2.0,-5.0,nan,nan,nan,nan,nan
6.380289316177368,0.33299049735069275,0.8868520259857178,-2.859398603439331,0.03936115038510857,0.0008006095886230469,1.0,2.0,-5.0,nan,nan,nan,nan,nan
6.390203475952148,0.33794668316841125,0.8881883025169373,-2.860480308532715,0.048822374012924,0.0008134841918945312,1.0,2.0,-5.0,nan,nan,nan,nan,nan
6.400485992431641,0.3427327275276184,0.8890783786773682,-2.8613638877868652,0.05863867790039007,0.0004944801330566406,1.0,2.0,-5.0,nan,nan,nan,nan,nan
6.410223484039307,0.34736138582229614,0.889532744884491,-2.862060070037842,0.06869411170380729,0.0006434917449951172,1.0,2.0,-5.0,nan,nan,nan,nan,nan
6.4202940464019775,0.35289278626441956,0.8874322772026062,-2.861886978149414,0.08890186626989771,0.0007517337799072266,1.0,2.0,-5.0,nan,nan,nan,nan,nan
6.4302990436553955,0.3538527488708496,0.8849518895149231,-2.8610520362854004,0.10039554460386718,0.0009016990661621094,1.0,2.0,-5.0,nan,nan,nan,nan,nan
6.44022536277771,0.35475069284439087,0.882152259349823,-2.8600752353668213,0.11149598575409392,0.0007469654083251953,1.0,2.0,-5.0,nan,nan,nan,nan,nan
6.450270891189575,0.355599045753479,0.8790592551231384,-2.8589611053466797,0.1219858694500951,0.0006182193756103516,1.0,2.0,-5.0,nan,nan,nan,nan,nan
6.46027946472168,0.3571918308734894,0.8721177577972412,-2.856311082839966,0.14069736150893664,0.0006573200225830078,1.0,2.0,-5.0,nan,nan,nan,nan,nan
6.470252752304077,0.3579544723033905,0.8683420419692993,-2.854750871658325,0.14864350929992992,0.0007963180541992188,1.0,2.0,-5.0,nan,nan,nan,nan,nan
6.480343580245972,0.3587041199207306,0.8644127249717712,-2.853008985519409,0.15548078792622033,0.0008091926574707031,1.0,2.0,-5.0,nan,nan,nan,nan,nan
6.490208864212036,0.3594458997249603,0.8603653907775879,-2.851064682006836,0.16115304665518068,0.0006282329559326172,1.0,2.0,-5.0,nan,nan,nan,nan,nan
6.500484228134155,0.36095815896987915,0.8520484566688538,-2.8464903831481934,0.1688643181723286,0.0004591941833496094,1.0,2.0,-5.0,nan,nan,nan,nan,nan
6.510204553604126,0.36173444986343384,0.8478351831436157,-2.8438239097595215,0.1707167137504916,0.0006382465362548828,1.0,2.0,-5.0,nan,nan,nan,nan,nan
6.520201683044434,0.3625141978263855,0.84361732006073,-2.8408796787261963,0.17131404105171666,0.0005347728729248047,1.0,2.0,-5.0,nan,nan,nan,nan,nan
6.53019118309021,0.36329683661460876,0.839417576789856,-2.837632179260254,0.17070132953372738,0.0005412101745605469,1.0,2.0,-5.0,nan,nan,nan,nan,nan
6.5402138233184814,0.36151111125946045,0.8256655335426331,-2.829571485519409,0.1659877535619358,0.00048613548278808594,1.0,2.0,-5.0,nan,nan,nan,nan,nan
6.550265073776245,0.3590141832828522,0.8162294626235962,-2.8247463703155518,0.1636467016097444,0.0005083084106445312,1.0,2.0,-5.0,nan,nan,nan,nan,nan
6.5602076053619385,0.35660797357559204,0.8069679141044617,-2.81962513923645,0.1605576827654993,0.0007686614990234375,1.0,2.0,-5.0,nan,nan,nan,nan,nan
6.570285320281982,0.3521895408630371,0.7890850305557251,-2.808698892593384,0.15391381427116485,0.000732421875,1.0,2.0,-5.0,nan,nan,nan,nan,nan
6.580299615859985,0.3521895408630371,0.7890850305557251,-2.808698892593384,0.15391381427116485,0.0006365776062011719,1.0,2.0,-5.0,nan,nan,nan,nan,nan
6.59021258354187,0.34835150837898254,0.7722473740577698,-2.797029972076416,0.1490909326474707,0.00046896934509277344,1.0,2.0,-5.0,nan,nan,nan,nan,nan
6.600516080856323,0.34835150837898254,0.7722473740577698,-2.797029972076416,0.1490909326474707,0.0004916191101074219,1.0,2.0,-5.0,nan,nan,nan,nan,nan
6.610168933868408,0.34373143315315247,0.7495019435882568,-2.7785685062408447,0.14803136303142703,0.0006470680236816406,1.0,2.0,-5.0,nan,nan,nan,nan,nan
6.620186805725098,0.34373143315315247,0.7495019435882568,-2.7785685062408447,0.14803136303142703,0.0005340576171875,1.0,2.0,-5.0,nan,nan,nan,nan,nan
6.6301915645599365,0.34148529171943665,0.7364257574081421,-2.766005516052246,0.15135043163592107,0.0006060600280761719,1.0,2.0,-5.0,nan,nan,nan,nan,nan
6.640187978744507,0.34148529171943665,0.7364257574081421,-2.766005516052246,0.15135043163592107,0.0006005764007568359,1.0,2.0,-5.0,nan,nan,nan,nan,nan
6.6502463817596436,0.33998072147369385,0.7253199815750122,-2.7535133361816406,0.15747482767699245,0.0005140304565429688,1.0,2.0,-5.0,nan,nan,nan,nan,nan
6.6601881980896,0.33998072147369385,0.7253199815750122,-2.7535133361816406,0.15747482767699245,0.0007600784301757812,1.0,2.0,-5.0,nan,nan,nan,nan,nan
6.670246124267578,0.3386214077472687,0.7101322412490845,-2.735004186630249,0.17104758152521993,0.0005199909210205078,1.0,2.0,-5.0,nan,nan,nan,nan,nan
6.680219888687134,0.3386214077472687,0.7101322412490845,-2.735004186630249,0.17104758152521993,0.0005817413330078125,1.0,2.0,-5.0,nan,nan,nan,nan,nan
6.690191030502319,0.33806514739990234,0.6995112895965576,-2.7228317260742188,0.18328058868860658,0.0005822181701660156,1.0,2.0,-5.0,nan,nan,nan,nan,nan
6.70043158531189,0.33806514739990234,0.6995112895965576,-2.7228317260742188,0.18328058868860658,0.0005464553833007812,1.0,2.0,-5.0,nan,nan,nan,nan,nan
6.710252285003662,0.33832409977912903,0.6879350543022156,-2.705592632293701,0.2022305239527338,0.0005955696105957031,1.0,2.0,-5.0,nan,nan,nan,nan,nan
6.720170974731445,0.33832409977912903,0.6879350543022156,-2.705592632293701,0.2022305239527338,0.0004944801330566406,1.0,2.0,-5.0,nan,nan,nan,nan,nan
6.730233192443848,0.33912596106529236,0.6830472350120544,-2.6950297355651855,0.21377395819225725,0.0006582736968994141,1.0,2.0,-5.0,nan,nan,nan,nan,nan
6.740264654159546,0.33912596106529236,0.6830472350120544,-2.6950297355651855,0.21377395819225725,0.0006430149078369141,1.0,2.0,-5.0,nan,nan,nan,nan,nan
6.750316143035889,0.3410603702068329,0.6796762943267822,-2.681058168411255,0.2274979283901631,0.0007710456848144531,1.0,2.0,-5.0,nan,nan,nan,nan,nan
6.760227680206299,0.3410603702068329,0.6796762943267822,-2.681058168411255,0.2274979283901631,0.0007169246673583984,1.0,2.0,-5.0,nan,nan,nan,nan,nan
6.770244836807251,0.34269535541534424,0.6797804236412048,-2.673133134841919,0.23384320956564444,0.0005559921264648438,1.0,2.0,-5.0,nan,nan,nan,nan,nan
6.78023362159729,0.34269535541534424,0.6797804236412048,-2.673133134841919,0.23384320956564444,0.0005741119384765625,1.0,2.0,-5.0,nan,nan,nan,nan,nan
6.790292739868164,0.34448519349098206,0.6814603805541992,-2.66629958152771,0.23798089736771938,0.0005981922149658203,1.0,2.0,-5.0,nan,nan,nan,nan,nan
6.80043625831604,0.3467704653739929,0.6854111552238464,-2.6620118618011475,0.2392379619413767,0.0004799365997314453,1.0,2.0,-5.0,nan,nan,nan,nan,nan
6.810256481170654,0.3490736484527588,0.6896155476570129,-2.6579842567443848,0.23967918171470937,0.0005953311920166016,1.0,2.0,-5.0,nan,nan,nan,nan,nan
6.820252180099487,0.35133668780326843,0.6940134167671204,-2.654139757156372,0.23910053327894945,0.0004961490631103516,1.0,2.0,-5.0,nan,nan,nan,nan,nan
6.8302154541015625,0.3557094633579254,0.7032250761985779,-2.646627902984619,0.2354628044183471,0.0005428791046142578,1.0,2.0,-5.0,nan,nan,nan,nan,nan
6.840188026428223,0.357806921005249,0.7079851627349854,-2.6428635120391846,0.23265184850482762,0.000499725341796875,1.0,2.0,-5.0,nan,nan,nan,nan,nan
6.850265979766846,0.3598380982875824,0.7128231525421143,-2.639082908630371,0.22937919429992842,0.0005402565002441406,1.0,2.0,-5.0,nan,nan,nan,nan,nan
6.860318422317505,0.36179837584495544,0.7177236080169678,-2.635301113128662,0.2257919949385785,0.0007188320159912109,1.0,2.0,-5.0,nan,nan,nan,nan,nan
6.870223522186279,0.36549127101898193,0.7276564836502075,-2.6278276443481445,0.2180877797446688,0.000522613525390625,1.0,2.0,-5.0,nan,nan,nan,nan,nan
6.880221366882324,0.3672040104866028,0.7326620221138,-2.6241819858551025,0.2141121464897904,0.0005958080291748047,1.0,2.0,-5.0,nan,nan,nan,nan,nan
6.890214443206787,0.368836373090744,0.7376844882965088,-2.620619535446167,0.21016382675444312,0.0005550384521484375,1.0,2.0,-5.0,nan,nan,nan,nan,nan
6.900388717651367,0.3703894317150116,0.7427195310592651,-2.617142915725708,0.2061811878434731,0.0004851818084716797,1.0,2.0,-5.0,nan,nan,nan,nan,nan
6.910228729248047,0.3732685148715973,0.7528271675109863,-2.6104259490966797,0.19796073616718793,0.0006279945373535156,1.0,2.0,-5.0,nan,nan,nan,nan,nan
6.9202423095703125,0.3746029734611511,0.7579068541526794,-2.6071650981903076,0.19359326344797173,0.0005674362182617188,1.0,2.0,-5.0,nan,nan,nan,nan,nan
6.930263519287109,0.37591084837913513,0.7641480565071106,-2.603867530822754,0.18895043856166388,0.0008525848388671875,1.0,2.0,-5.0,nan,nan,nan,nan,nan
6.940191268920898,0.37716373801231384,0.7704049944877625,-2.6005849838256836,0.18379506984705854,0.0005774497985839844,1.0,2.0,-5.0,nan,nan,nan,nan,nan
6.9502646923065186,0.3795096278190613,0.7830057144165039,-2.593888282775879,0.17209370329757678,0.0005311965942382812,1.0,2.0,-5.0,nan,nan,nan,nan,nan
6.960173606872559,0.3806120455265045,0.78937166929245,-2.5903756618499756,0.16553553767569007,0.0006382465362548828,1.0,2.0,-5.0,nan,nan,nan,nan,nan
6.97022271156311,0.38167932629585266,0.7957963347434998,-2.586686849594116,0.15838293985166224,0.0005896091461181641,1.0,2.0,-5.0,nan,nan,nan,nan,nan
6.98042893409729,0.3827149569988251,0.8022873997688293,-2.5827770233154297,0.15061054547170213,0.0009143352508544922,1.0,2.0,-5.0,nan,nan,nan,nan,nan
6.990258693695068,0.38470298051834106,0.8154902458190918,-2.5741257667541504,0.13315514872709883,0.0007917881011962891,1.0,2.0,-5.0,nan,nan,nan,nan,nan
7.000574350357056,0.38565945625305176,0.822208821773529,-2.5693070888519287,0.12345974186600076,0.0007431507110595703,1.0,2.0,-5.0,nan,nan,nan,nan,nan
7.0103960037231445,0.3865930736064911,0.8290078043937683,-2.564119577407837,0.1131232930282706,0.0008454322814941406,1.0,2.0,-5.0,nan,nan,nan,nan,nan
7.020218849182129,0.3875058591365814,0.8358884453773499,-2.5585365295410156,0.10216759008801599,0.0005588531494140625,1.0,2.0,-5.0,nan,nan,nan,nan,nan
7.030195474624634,0.3892709016799927,0.8498984575271606,-2.5461130142211914,0.07858144753040851,0.0006163120269775391,1.0,2.0,-5.0,nan,nan,nan,nan,nan
7.040256500244141,0.3901313543319702,0.8570297956466675,-2.539245128631592,0.06605554832440708,0.0007102489471435547,1.0,2.0,-5.0,nan,nan,nan,nan,nan
7.05024528503418,0.39098015427589417,0.8642465472221375,-2.5319247245788574,0.053109597081842874,0.0005726814270019531,1.0,2.0,-5.0,nan,nan,nan,nan,nan
7.0602781772613525,0.39057454466819763,0.8693222999572754,-2.5234017372131348,0.03992394892442777,0.0005714893341064453,1.0,2.0,-5.0,nan,nan,nan,nan,nan
7.070298671722412,0.389821320772171,0.8799257874488831,-2.5051677227020264,0.01672688530630803,0.0005466938018798828,1.0,2.0,-5.0,nan,nan,nan,nan,nan
7.0802202224731445,0.389513224363327,0.8855165243148804,-2.495544672012329,0.00696136967748992,0.0006470680236816406,1.0,2.0,-5.0,nan,nan,nan,nan,nan
7.090166330337524,0.38927316665649414,0.8913350701332092,-2.4856197834014893,-0.0010245620952622492,0.0004961490631103516,1.0,2.0,-5.0,nan,nan,nan,nan,nan
7.100442409515381,0.3891049027442932,0.8973950743675232,-2.4754045009613037,-0.007123576336622639,0.0004982948303222656,1.0,2.0,-5.0,nan,nan,nan,nan,nan
7.1101720333099365,0.38900646567344666,0.9103032350540161,-2.4541566371917725,-0.013961052292624898,0.0005707740783691406,1.0,2.0,-5.0,nan,nan,nan,nan,nan
7.120254755020142,0.38908958435058594,0.917190432548523,-2.4431650638580322,-0.015110120534176263,0.0005707740783691406,1.0,2.0,-5.0,nan,nan,nan,nan,nan
7.130321741104126,0.3892708420753479,0.9243964552879333,-2.4319639205932617,-0.015102701688357367,0.0007016658782958984,1.0,2.0,-5.0,nan,nan,nan,nan,nan
7.140236139297485,0.3895578384399414,0.9319452047348022,-2.4205894470214844,-0.01420275222640427,0.0005054473876953125,1.0,2.0,-5.0,nan,nan,nan,nan,nan
7.1502509117126465,0.3904770016670227,0.9481644034385681,-2.3974809646606445,-0.010691361752803274,0.0005574226379394531,1.0,2.0,-5.0,nan,nan,nan,nan,nan
7.16020393371582,0.39113467931747437,0.9568809866905212,-2.385840892791748,-0.008507136452466146,0.00048279762268066406,1.0,2.0,-5.0,nan,nan,nan,nan,nan
7.170182228088379,0.3919204771518707,0.9660210013389587,-2.374197244644165,-0.0062834382982958625,0.0005412101745605469,1.0,2.0,-5.0,nan,nan,nan,nan,nan
7.180244445800781,0.39423486590385437,0.9747470021247864,-2.361558675765991,-0.004079618596509682,0.0007092952728271484,1.0,2.0,-5.0,nan,nan,nan,nan,nan
7.1901795864105225,0.39918288588523865,0.993556797504425,-2.3366096019744873,-0.00112211106669588,0.0005941390991210938,1.0,2.0,-5.0,nan,nan,nan,nan,nan
7.200456619262695,0.40181225538253784,1.0036320686340332,-2.324361801147461,-4.44156294993614e-05,0.0004298686981201172,1.0,2.0,-5.0,nan,nan,nan,nan,nan
7.21025276184082,0.40454044938087463,1.0141412019729614,-2.312312602996826,0.0007361756290374943,0.0007524490356445312,1.0,2.0,-5.0,nan,nan,nan,nan,nan
7.220246076583862,0.40736305713653564,1.025070071220398,-2.300473690032959,0.0011840797789391955,0.0005214214324951172,1.0,2.0,-5.0,nan,nan,nan,nan,nan
7.230242013931274,0.4132181406021118,1.0481047630310059,-2.2775182723999023,0.000912357217230847,0.0006723403930664062,1.0,2.0,-5.0,nan,nan,nan,nan,nan
7.240218162536621,0.4162379801273346,1.0601714849472046,-2.26644229888916,0.00037543089450320366,0.0004601478576660156,1.0,2.0,-5.0,nan,nan,nan,nan,nan
7.25019383430481,0.4193277657032013,1.0725791454315186,-2.2556543350219727,-0.0005504883907996583,0.0004467964172363281,1.0,2.0,-5.0,nan,nan,nan,nan,nan
7.260218381881714,0.42248034477233887,1.0853021144866943,-2.245164632797241,-0.001851476643301958,0.0005223751068115234,1.0,2.0,-5.0,nan,nan,nan,nan,nan
7.270243883132935,0.42894643545150757,1.1115856170654297,-2.225132942199707,-0.005442800682302018,0.0005497932434082031,1.0,2.0,-5.0,nan,nan,nan,nan,nan
7.280261754989624,0.43224599957466125,1.1250889301300049,-2.215587615966797,-0.007679514857847694,0.0007119178771972656,1.0,2.0,-5.0,nan,nan,nan,nan,nan
7.290204048156738,0.4355804920196533,1.138794183731079,-2.2063560485839844,-0.010168731130749509,0.0005228519439697266,1.0,2.0,-5.0,nan,nan,nan,nan,nan
7.300474405288696,0.43894311785697937,1.1526708602905273,-2.197434425354004,-0.012860108936240476,0.00048661231994628906,1.0,2.0,-5.0,nan,nan,nan,nan,nan
7.3101372718811035,0.4508563280105591,1.1850541830062866,-2.1782186031341553,-0.020342495492531542,0.0006020069122314453,1.0,2.0,-5.0,nan,nan,nan,nan,nan
7.320251226425171,0.4567978084087372,1.201310634613037,-2.168978214263916,-0.025297328176021407,0.0005083084106445312,1.0,2.0,-5.0,nan,nan,nan,nan,nan
7.33018684387207,0.46272292733192444,1.2175705432891846,-2.159871816635132,-0.030515106539432395,0.0006558895111083984,1.0,2.0,-5.0,nan,nan,nan,nan,nan
7.340201139450073,0.46863073110580444,1.233812689781189,-2.1508679389953613,-0.035880058374063724,0.0005137920379638672,1.0,2.0,-5.0,nan,nan,nan,nan,nan
7.350263833999634,0.48040202260017395,1.2661786079406738,-2.1331169605255127,-0.04655479180108821,0.0005891323089599609,1.0,2.0,-5.0,nan,nan,nan,nan,nan
7.360213041305542,0.4862743318080902,1.2822823524475098,-2.1243062019348145,-0.051751728041185455,0.0005381107330322266,1.0,2.0,-5.0,nan,nan,nan,nan,nan
7.370224714279175,0.498056560754776,1.3143274784088135,-2.1064629554748535,-0.06195532795999337,0.0005304813385009766,1.0,2.0,-5.0,nan,nan,nan,nan,nan
7.380215406417847,0.503960907459259,1.330267071723938,-2.0973100662231445,-0.06703920671772015,0.0005669593811035156,1.0,2.0,-5.0,nan,nan,nan,nan,nan
7.390231370925903,0.5098803639411926,1.3461562395095825,-2.087935209274292,-0.0721527539650718,0.0005023479461669922,1.0,2.0,-5.0,nan,nan,nan,nan,nan
7.4003660678863525,0.5158190727233887,1.361999273300171,-2.078295946121216,-0.07733758470885617,0.0004324913024902344,1.0,2.0,-5.0,nan,nan,nan,nan,nan
7.410241365432739,0.5217803120613098,1.3778005838394165,-2.068373441696167,-0.08262788228179706,0.0004913806915283203,1.0,2.0,-5.0,nan,nan,nan,nan,nan
7.420215368270874,0.527766764163971,1.3935649394989014,-2.058115243911743,-0.08805343619907881,0.0005207061767578125,1.0,2.0,-5.0,nan,nan,nan,nan,nan
7.430201768875122,0.5400673747062683,1.4246861934661865,-2.0362396240234375,-0.09939210334451713,0.00064849853515625,1.0,2.0,-5.0,nan,nan,nan,nan,nan
7.440150022506714,0.5463815927505493,1.4400575160980225,-2.0245747566223145,-0.10545225152718682,0.0004940032958984375,1.0,2.0,-5.0,nan,nan,nan,nan,nan
7.450263500213623,0.5527245998382568,1.4554152488708496,-2.0124733448028564,-0.11170636741456111,0.0005559921264648438,1.0,2.0,-5.0,nan,nan,nan,nan,nan
7.460162162780762,0.5590955018997192,1.4707623720169067,-1.9999144077301025,-0.11816114184095697,0.00048661231994628906,1.0,2.0,-5.0,nan,nan,nan,nan,nan
7.470214605331421,0.571916401386261,1.5014351606369019,-1.973397970199585,-0.1316337236932613,0.0005631446838378906,1.0,2.0,-5.0,nan,nan,nan,nan,nan
7.480324745178223,0.5783641338348389,1.5167649984359741,-1.9593932628631592,-0.1386132440402124,0.0008120536804199219,1.0,2.0,-5.0,nan,nan,nan,nan,nan
7.4902191162109375,0.5848356485366821,1.5320923328399658,-1.9448802471160889,-0.14574709482410614,0.00047326087951660156,1.0,2.0,-5.0,nan,nan,nan,nan,nan
7.500517129898071,0.5913304090499878,1.5474181175231934,-1.929853916168213,-0.15302967394171574,0.0005068778991699219,1.0,2.0,-5.0,nan,nan,nan,nan,nan
7.510265827178955,0.6043877601623535,1.5780690908432007,-1.8982679843902588,-0.1680179314309933,0.0004730224609375,1.0,2.0,-5.0,nan,nan,nan,nan,nan
7.520260334014893,0.6109568476676941,1.5933961868286133,-1.8817040920257568,-0.17570048874164554,0.0006868839263916016,1.0,2.0,-5.0,nan,nan,nan,nan,nan
7.530304670333862,0.6175480484962463,1.6087249517440796,-1.864617109298706,-0.18350937648711868,0.0006935596466064453,1.0,2.0,-5.0,nan,nan,nan,nan,nan
7.5402672290802,0.6241612434387207,1.6240559816360474,-1.84700608253479,-0.19141112785694056,0.0006494522094726562,1.0,2.0,-5.0,nan,nan,nan,nan,nan
7.550267934799194,0.6375226378440857,1.653236746788025,-1.809272289276123,-0.20739146206415607,0.0006146430969238281,1.0,2.0,-5.0,nan,nan,nan,nan,nan
7.56016993522644,0.6442689895629883,1.667116403579712,-1.789207935333252,-0.21514162264306994,0.0004911422729492188,1.0,2.0,-5.0,nan,nan,nan,nan,nan
7.570206880569458,0.6510542035102844,1.681033968925476,-1.7687077522277832,-0.2224984835096257,0.0005023479461669922,1.0,2.0,-5.0,nan,nan,nan,nan,nan
7.580226182937622,0.6579012274742126,1.6949975490570068,-1.7478363513946533,-0.229218427401204,0.0008497238159179688,1.0,2.0,-5.0,nan,nan,nan,nan,nan
7.590184450149536,0.6718375086784363,1.7230916023254395,-1.70513916015625,-0.24005962648157458,0.0006413459777832031,1.0,2.0,-5.0,nan,nan,nan,nan,nan
7.600472927093506,0.6789435744285583,1.7372342348098755,-1.6833713054656982,-0.244055225622262,0.00044274330139160156,1.0,2.0,-5.0,nan,nan,nan,nan,nan
7.610249042510986,0.6861530542373657,1.7514488697052002,-1.6613998413085938,-0.24720561111835074,0.0006670951843261719,1.0,2.0,-5.0,nan,nan,nan,nan,nan
7.620251417160034,0.6934756636619568,1.7657430171966553,-1.6392545700073242,-0.2496900182415356,0.000583648681640625,1.0,2.0,-5.0,nan,nan,nan,nan,nan
7.630267381668091,0.7084912657737732,1.7945947647094727,-1.5946903228759766,-0.2533883119048168,0.0006833076477050781,1.0,2.0,-5.0,nan,nan,nan,nan,nan
7.640212535858154,0.7161872982978821,1.809158205986023,-1.5723745822906494,-0.2549175513942303,0.0005013942718505859,1.0,2.0,-5.0,nan,nan,nan,nan,nan
7.650213003158569,0.7240026593208313,1.8238118886947632,-1.5500891208648682,-0.25639382241779024,0.0005784034729003906,1.0,2.0,-5.0,nan,nan,nan,nan,nan
7.660173416137695,0.7319291234016418,1.8385522365570068,-1.5278680324554443,-0.25790058725490106,0.0004603862762451172,1.0,2.0,-5.0,nan,nan,nan,nan,nan
7.670225143432617,0.748100996017456,1.8682645559310913,-1.4837892055511475,-0.26124442835569417,0.0005669593811035156,1.0,2.0,-5.0,nan,nan,nan,nan,nan
7.680248975753784,0.7587485909461975,1.8819600343704224,-1.4608924388885498,-0.26311820917802503,0.0006940364837646484,1.0,2.0,-5.0,nan,nan,nan,nan,nan
7.690252304077148,0.769447922706604,1.8957232236862183,-1.438173532485962,-0.2666738567622332,0.0005679130554199219,1.0,2.0,-5.0,nan,nan,nan,nan,nan
7.700504302978516,0.7801832556724548,1.9095416069030762,-1.4156389236450195,-0.2703578566448042,0.0005137920379638672,1.0,2.0,-5.0,nan,nan,nan,nan,nan
7.7102484703063965,0.7801832556724548,1.9095416069030762,-1.4156389236450195,-0.2703578566448042,0.0006201267242431641,1.0,2.0,-5.0,nan,nan,nan,nan,nan
7.720160007476807,0.8124491572380066,1.9511946439743042,-1.3492841720581055,-0.28209075652267696,0.00060272216796875,1.0,2.0,-5.0,nan,nan,nan,nan,nan
7.730314254760742,0.8124491572380066,1.9511946439743042,-1.3492841720581055,-0.28209075652267696,0.0008656978607177734,1.0,2.0,-5.0,nan,nan,nan,nan,nan
7.7402565479278564,0.8338639140129089,1.9789873361587524,-1.3060615062713623,-0.2903357935724412,0.0005161762237548828,1.0,2.0,-5.0,nan,nan,nan,nan,nan
7.750210285186768,0.8338639140129089,1.9789873361587524,-1.3060615062713623,-0.2903357935724412,0.0005896091461181641,1.0,2.0,-5.0,nan,nan,nan,nan,nan
7.760289192199707,0.8655239343643188,2.0204098224639893,-1.2425742149353027,-0.3030658974557964,0.0013456344604492188,1.0,2.0,-5.0,nan,nan,nan,nan,nan
7.770250558853149,0.8655239343643188,2.0204098224639893,-1.2425742149353027,-0.3030658974557964,0.0007221698760986328,1.0,2.0,-5.0,nan,nan,nan,nan,nan
7.780293226242065,0.8861653804779053,2.047677755355835,-1.2010021209716797,-0.3116399166097261,0.0006079673767089844,1.0,2.0,-5.0,nan,nan,nan,nan,nan
7.790247917175293,0.8861653804779053,2.047677755355835,-1.2010021209716797,-0.3116399166097261,0.0005898475646972656,1.0,2.0,-5.0,nan,nan,nan,nan,nan
7.800480604171753,0.9193975329399109,2.088136672973633,-1.1397712230682373,-0.3245519962254804,0.00043845176696777344,1.0,2.0,-5.0,nan,nan,nan,nan,nan
7.810185432434082,0.9193975329399109,2.088136672973633,-1.1397712230682373,-0.3245519962254804,0.0004897117614746094,1.0,2.0,-5.0,nan,nan,nan,nan,nan
7.820236921310425,0.9449891448020935,2.114856004714966,-1.0997493267059326,-0.33534531477968926,0.0006499290466308594,1.0,2.0,-5.0,nan,nan,nan,nan,nan
7.830247163772583,0.9449891448020935,2.114856004714966,-1.0997493267059326,-0.33534531477968926,0.0007941722869873047,1.0,2.0,-5.0,nan,nan,nan,nan,nan
7.840225458145142,0.9820581078529358,2.153806447982788,-1.0388813018798828,-0.3458323141741391,0.0005729198455810547,1.0,2.0,-5.0,nan,nan,nan,nan,nan
7.850250244140625,0.9820581078529358,2.153806447982788,-1.0388813018798828,-0.3458323141741391,0.0006313323974609375,1.0,2.0,-5.0,nan,nan,nan,nan,nan
7.86020565032959,1.0058737993240356,2.1789677143096924,-0.9975006580352783,-0.3466988537709087,0.0005495548248291016,1.0,2.0,-5.0,nan,nan,nan,nan,nan
7.870245933532715,1.0058737993240356,2.1789677143096924,-0.9975006580352783,-0.3466988537709087,0.0005745887756347656,1.0,2.0,-5.0,nan,nan,nan,nan,nan
7.880265712738037,1.0401263236999512,2.2152388095855713,-0.9346816539764404,-0.33917048576264003,0.0006933212280273438,1.0,2.0,-5.0,nan,nan,nan,nan,nan
7.890196084976196,1.0401263236999512,2.2152388095855713,-0.9346816539764404,-0.33917048576264003,0.000514984130859375,1.0,2.0,-5.0,nan,nan,nan,nan,nan
7.900501489639282,1.0694503784179688,2.2354936599731445,-0.9176360368728638,-0.31313570232945726,0.0007443428039550781,1.0,2.0,-5.0,nan,nan,nan,nan,nan
7.910209894180298,1.0694503784179688,2.2354936599731445,-0.9176360368728638,-0.31313570232945726,0.00048661231994628906,1.0,2.0,-5.0,nan,nan,nan,nan,nan
7.920303583145142,1.1163606643676758,2.2635931968688965,-0.902854323387146,-0.2814530486552881,0.0005748271942138672,1.0,2.0,-5.0,nan,nan,nan,nan,nan
7.930246114730835,1.1163606643676758,2.2635931968688965,-0.902854323387146,-0.2814530486552881,0.000621795654296875,1.0,2.0,-5.0,nan,nan,nan,nan,nan
7.9402174949646,1.1310718059539795,2.272263526916504,-0.8973648548126221,-0.27467327234350186,0.0006320476531982422,1.0,2.0,-5.0,nan,nan,nan,nan,nan
7.950222969055176,1.1457327604293823,2.2809035778045654,-0.8915437459945679,-0.26896966817301404,0.0006053447723388672,1.0,2.0,-5.0,nan,nan,nan,nan,nan
7.96021032333374,1.174199104309082,2.2978622913360596,-0.8801511526107788,-0.26194881552492555,0.0005822181701660156,1.0,2.0,-5.0,nan,nan,nan,nan,nan
7.9702534675598145,1.1837072372436523,2.3044381141662598,-0.8824750185012817,-0.2636075008624622,0.0006017684936523438,1.0,2.0,-5.0,nan,nan,nan,nan,nan
7.980206251144409,1.192438006401062,2.310789108276367,-0.885779857635498,-0.2649333224182791,0.0007498264312744141,1.0,2.0,-5.0,nan,nan,nan,nan,nan
7.9901745319366455,1.2010875940322876,2.3172225952148438,-0.8888002634048462,-0.2659018420790056,0.0006189346313476562,1.0,2.0,-5.0,nan,nan,nan,nan,nan
8.000454664230347,1.2182494401931763,2.3302853107452393,-0.8941336870193481,-0.26880775968500037,0.0004630088806152344,1.0,2.0,-5.0,nan,nan,nan,nan,nan
8.010200023651123,1.2268505096435547,2.336883068084717,-0.8963809013366699,-0.27139516248479356,0.0005333423614501953,1.0,2.0,-5.0,nan,nan,nan,nan,nan
8.02025818824768,1.235446572303772,2.3435018062591553,-0.8983612060546875,-0.2748341242467499,0.0005121231079101562,1.0,2.0,-5.0,nan,nan,nan,nan,nan
8.030211210250854,1.2440053224563599,2.350139856338501,-0.9000442028045654,-0.27904922669974225,0.0006561279296875,1.0,2.0,-5.0,nan,nan,nan,nan,nan
8.040228843688965,1.2609543800354004,2.363487482070923,-0.9025154113769531,-0.2891988404493554,0.0007736682891845703,1.0,2.0,-5.0,nan,nan,nan,nan,nan
8.050236463546753,1.2693041563034058,2.370216131210327,-0.9033070802688599,-0.29486018096607736,0.0008437633514404297,1.0,2.0,-5.0,nan,nan,nan,nan,nan
8.060288667678833,1.277530312538147,2.376992702484131,-0.903810977935791,-0.3007930516814391,0.0007658004760742188,1.0,2.0,-5.0,nan,nan,nan,nan,nan
8.070270776748657,1.2822996377944946,2.3802387714385986,-0.9052691459655762,-0.3068268034241764,0.0007760524749755859,1.0,2.0,-5.0,nan,nan,nan,nan,nan
8.080327033996582,1.2916972637176514,2.3871326446533203,-0.9071767330169678,-0.31787901651650163,0.0005657672882080078,1.0,2.0,-5.0,nan,nan,nan,nan,nan
8.09025239944458,1.2964260578155518,2.3908612728118896,-0.9075069427490234,-0.3214788947469679,0.0005810260772705078,1.0,2.0,-5.0,nan,nan,nan,nan,nan
8.100380659103394,1.3012052774429321,2.3948211669921875,-0.9074374437332153,-0.32324943911659815,0.0004684925079345703,1.0,2.0,-5.0,nan,nan,nan,nan,nan
8.110215187072754,1.306029200553894,2.399015188217163,-0.9070037603378296,-0.32334126221758264,0.0005841255187988281,1.0,2.0,-5.0,nan,nan,nan,nan,nan
8.120232105255127,1.3156636953353882,2.4079983234405518,-0.9053807258605957,-0.3206014173221638,0.0005090236663818359,1.0,2.0,-5.0,nan,nan,nan,nan,nan
8.130154371261597,1.3204495906829834,2.4127931594848633,-0.9042360782623291,-0.3185856349036994,0.0005116462707519531,1.0,2.0,-5.0,nan,nan,nan,nan,nan
8.14018726348877,1.3251897096633911,2.4177863597869873,-0.90291428565979,-0.31659715782491443,0.0006029605865478516,1.0,2.0,-5.0,nan,nan,nan,nan,nan
8.150181293487549,1.329875111579895,2.4229774475097656,-0.9014312028884888,-0.31486115670459625,0.0008802413940429688,1.0,2.0,-5.0,nan,nan,nan,nan,nan
8.160260677337646,1.3380348682403564,2.433353900909424,-0.898705244064331,-0.3099002727810668,0.0007884502410888672,1.0,2.0,-5.0,nan,nan,nan,nan,nan
8.170231342315674,1.3414825201034546,2.4385197162628174,-0.8973703384399414,-0.3056185080653426,0.0005812644958496094,1.0,2.0,-5.0,nan,nan,nan,nan,nan
8.180165529251099,1.344804286956787,2.4438798427581787,-0.8957587480545044,-0.30010802771773576,0.0005517005920410156,1.0,2.0,-5.0,nan,nan,nan,nan,nan
8.190179109573364,1.3494184017181396,2.4482641220092773,-0.8934435844421387,-0.29276633500828875,0.0005505084991455078,1.0,2.0,-5.0,nan,nan,nan,nan,nan
8.200446844100952,1.3581901788711548,2.457653284072876,-0.8880256414413452,-0.27802500562119187,0.0005488395690917969,1.0,2.0,-5.0,nan,nan,nan,nan,nan
8.210242986679077,1.3623971939086914,2.462688446044922,-0.8850158452987671,-0.2741268879053842,0.0007643699645996094,1.0,2.0,-5.0,nan,nan,nan,nan,nan
8.220278024673462,1.3665452003479004,2.467900276184082,-0.8817892074584961,-0.27272354989355685,0.0005197525024414062,1.0,2.0,-5.0,nan,nan,nan,nan,nan
8.23019289970398,1.370656132698059,2.473336935043335,-0.8782811164855957,-0.2724614292746956,0.0005745887756347656,1.0,2.0,-5.0,nan,nan,nan,nan,nan
8.240359783172607,1.382008671760559,2.481290817260742,-0.8749966621398926,-0.31947366444524655,0.0005095005035400391,1.0,2.0,-5.0,nan,nan,nan,nan,nan
8.250230312347412,1.3893448114395142,2.4839816093444824,-0.8751320838928223,-0.35358109271047894,0.0005984306335449219,1.0,2.0,-5.0,nan,nan,nan,nan,nan
8.260239124298096,1.3966360092163086,2.4869468212127686,-0.8749170303344727,-0.38747185161500874,0.0005362033843994141,1.0,2.0,-5.0,nan,nan,nan,nan,nan
8.270249843597412,1.410959243774414,2.4934370517730713,-0.873532772064209,-0.43952761028096987,0.0005197525024414062,1.0,2.0,-5.0,nan,nan,nan,nan,nan
8.280173778533936,1.4153789281845093,2.4981555938720703,-0.8745901584625244,-0.3910656019724793,0.0005671977996826172,1.0,2.0,-5.0,nan,nan,nan,nan,nan
8.29021954536438,1.415907382965088,2.50233793258667,-0.8776031732559204,-0.32922881120941816,0.0006275177001953125,1.0,2.0,-5.0,nan,nan,nan,nan,nan
8.300390720367432,1.416236162185669,2.506479501724243,-0.8802565336227417,-0.2677107033835037,0.0005290508270263672,1.0,2.0,-5.0,nan,nan,nan,nan,nan
8.310166358947754,1.4165021181106567,2.5108649730682373,-0.8826243877410889,-0.21284046412942076,0.0007064342498779297,1.0,2.0,-5.0,nan,nan,nan,nan,nan
8.32024359703064,1.415884017944336,2.5215325355529785,-0.8875497579574585,-0.1284385029431,0.0005817413330078125,1.0,2.0,-5.0,nan,nan,nan,nan,nan
8.330219507217407,1.4157758951187134,2.52711820602417,-0.8895219564437866,-0.092195136059886,0.0005052089691162109,1.0,2.0,-5.0,nan,nan,nan,nan,nan
8.340188026428223,1.4158817529678345,2.5328433513641357,-0.8911120891571045,-0.05859478446241284,0.0005614757537841797,1.0,2.0,-5.0,nan,nan,nan,nan,nan
8.350197315216064,1.4161794185638428,2.5386624336242676,-0.8923130035400391,-0.027805913563067497,0.0005049705505371094,1.0,2.0,-5.0,nan,nan,nan,nan,nan
8.360265493392944,1.4172983169555664,2.5505025386810303,-0.8935112953186035,0.024946363689779316,0.0005197525024414062,1.0,2.0,-5.0,nan,nan,nan,nan,nan
8.370262384414673,1.4170031547546387,2.5548386573791504,-0.8965659141540527,0.061781161792506256,0.0005853176116943359,1.0,2.0,-5.0,nan,nan,nan,nan,nan
8.380168199539185,1.4105262756347656,2.5486865043640137,-0.9171212911605835,0.14040107548017255,0.0004506111145019531,1.0,2.0,-5.0,nan,nan,nan,nan,nan
8.390255451202393,1.4030530452728271,2.5411107540130615,-0.9402706623077393,0.21532455862746558,0.0005998611450195312,1.0,2.0,-5.0,nan,nan,nan,nan,nan
8.400349617004395,1.387953758239746,2.527339220046997,-0.9856568574905396,0.34696599415245827,0.0004367828369140625,1.0,2.0,-5.0,nan,nan,nan,nan,nan
8.410179615020752,1.380323052406311,2.5210442543029785,-1.0080289840698242,0.4032011599634343,0.0004711151123046875,1.0,2.0,-5.0,nan,nan,nan,nan,nan
8.42026662826538,1.3726452589035034,2.5150692462921143,-1.0302677154541016,0.4545217056663554,0.0005550384521484375,1.0,2.0,-5.0,nan,nan,nan,nan,nan
8.430209398269653,1.364940881729126,2.509345769882202,-1.0523631572723389,0.5030152920100994,0.0005266666412353516,1.0,2.0,-5.0,nan,nan,nan,nan,nan
8.440224885940552,1.3501921892166138,2.499398946762085,-1.0962016582489014,0.5984238171177199,0.0005815029144287109,1.0,2.0,-5.0,nan,nan,nan,nan,nan
8.45020866394043,1.3432109355926514,2.49507737159729,-1.11787748336792,0.6467929537664816,0.0005571842193603516,1.0,2.0,-5.0,nan,nan,nan,nan,nan
8.460166215896606,1.3363113403320312,2.490795612335205,-1.1393156051635742,0.695628114545259,0.0005199909210205078,1.0,2.0,-5.0,nan,nan,nan,nan,nan
8.470263481140137,1.3295176029205322,2.486524820327759,-1.1604881286621094,0.7444180231137989,0.0005567073822021484,1.0,2.0,-5.0,nan,nan,nan,nan,nan
8.480189323425293,1.3163365125656128,2.4779233932495117,-1.2019844055175781,0.8392640314108208,0.0004911422729492188,1.0,2.0,-5.0,nan,nan,nan,nan,nan
8.490201234817505,1.3099879026412964,2.473554849624634,-1.222240686416626,0.8839781678537977,0.0005431175231933594,1.0,2.0,-5.0,nan,nan,nan,nan,nan
8.50046992301941,1.3038239479064941,2.469121217727661,-1.242140769958496,0.9261746217505723,0.0004825592041015625,1.0,2.0,-5.0,nan,nan,nan,nan,nan
8.510249376296997,1.297860026359558,2.4646103382110596,-1.2616641521453857,0.9654348591132355,0.0005364418029785156,1.0,2.0,-5.0,nan,nan,nan,nan,nan
8.52027177810669,1.286601185798645,2.4552745819091797,-1.299621343612671,1.0338550053394198,0.0006353855133056641,1.0,2.0,-5.0,nan,nan,nan,nan,nan
8.530187129974365,1.2813246250152588,2.450514554977417,-1.3179268836975098,1.0627397668052723,0.0004932880401611328,1.0,2.0,-5.0,nan,nan,nan,nan,nan
8.540192127227783,1.2762773036956787,2.4456846714019775,-1.3357946872711182,1.0880023613702643,0.0005350112915039062,1.0,2.0,-5.0,nan,nan,nan,nan,nan
8.550226926803589,1.271470308303833,2.4407799243927,-1.3532075881958008,1.109656615787258,0.0004925727844238281,1.0,2.0,-5.0,nan,nan,nan,nan,nan
8.560194730758667,1.2611240148544312,2.4335312843322754,-1.3875627517700195,1.1428220865615586,0.0004718303680419922,1.0,2.0,-5.0,nan,nan,nan,nan,nan
8.570241928100586,1.2555545568466187,2.431234121322632,-1.4044866561889648,1.15494806542607,0.0005538463592529297,1.0,2.0,-5.0,nan,nan,nan,nan,nan
8.58022427558899,1.250237226486206,2.428887367248535,-1.4208967685699463,1.164343107385832,0.00044083595275878906,1.0,2.0,-5.0,nan,nan,nan,nan,nan
8.590308427810669,1.240496277809143,2.4239726066589355,-1.452162265777588,1.1767121868868857,0.0006585121154785156,1.0,2.0,-5.0,nan,nan,nan,nan,nan
8.600322008132935,1.2361091375350952,2.4213829040527344,-1.4670073986053467,1.1802380462183553,0.0005283355712890625,1.0,2.0,-5.0,nan,nan,nan,nan,nan
8.610207319259644,1.232069492340088,2.4186880588531494,-1.481323003768921,1.1823525936026464,0.00046634674072265625,1.0,2.0,-5.0,nan,nan,nan,nan,nan
8.620244026184082,1.2284015417099,2.41586971282959,-1.495131492614746,1.1835050203230872,0.0005533695220947266,1.0,2.0,-5.0,nan,nan,nan,nan,nan
8.630182266235352,1.2251337766647339,2.4129066467285156,-1.5084145069122314,1.184238109214187,0.00047135353088378906,1.0,2.0,-5.0,nan,nan,nan,nan,nan
8.640228271484375,1.219910979270935,2.4064509868621826,-1.5334217548370361,1.1867667648223381,0.0004956722259521484,1.0,2.0,-5.0,nan,nan,nan,nan,nan
8.650245666503906,1.2179977893829346,2.4029173851013184,-1.5451526641845703,1.1896809939243278,0.0007119178771972656,1.0,2.0,-5.0,nan,nan,nan,nan,nan
8.660173654556274,1.2165898084640503,2.3991596698760986,-1.5563724040985107,1.1943453145688367,0.0004734992980957031,1.0,2.0,-5.0,nan,nan,nan,nan,nan
8.670257568359375,1.2156662940979004,2.395164966583252,-1.5670833587646484,1.2011647490378068,0.0005490779876708984,1.0,2.0,-5.0,nan,nan,nan,nan,nan
8.680219650268555,1.215261459350586,2.386432647705078,-1.587022304534912,1.2228074264472546,0.0004658699035644531,1.0,2.0,-5.0,nan,nan,nan,nan,nan
8.690328359603882,1.2169594764709473,2.3805627822875977,-1.595839262008667,1.238231574703706,0.0008764266967773438,1.0,2.0,-5.0,nan,nan,nan,nan,nan
8.70047116279602,1.2191146612167358,2.374436378479004,-1.6041672229766846,1.2582509133328084,0.000522613525390625,1.0,2.0,-5.0,nan,nan,nan,nan,nan
8.71025824546814,1.2217150926589966,2.3680522441864014,-1.6120095252990723,1.2823532108981557,0.0005168914794921875,1.0,2.0,-5.0,nan,nan,nan,nan,nan
8.720248699188232,1.2282037734985352,2.354504108428955,-1.6262779235839844,1.3447227316144224,0.0005483627319335938,1.0,2.0,-5.0,nan,nan,nan,nan,nan
8.730212211608887,1.232077717781067,2.3473358154296875,-1.6327145099639893,1.3838914262980944,0.0009162425994873047,1.0,2.0,-5.0,nan,nan,nan,nan,nan
8.740189790725708,1.2363592386245728,2.3398945331573486,-1.63869047164917,1.428719459254119,0.0005121231079101562,1.0,2.0,-5.0,nan,nan,nan,nan,nan
8.750202178955078,1.2410506010055542,2.3321685791015625,-1.6442186832427979,1.4791671414688823,0.000652313232421875,1.0,2.0,-5.0,nan,nan,nan,nan,nan
8.760226726531982,1.251688003540039,2.3158018589019775,-1.6540005207061768,1.5957340614988047,0.0005972385406494141,1.0,2.0,-5.0,nan,nan,nan,nan,nan
8.770278692245483,1.2576454877853394,2.3071281909942627,-1.658313274383545,1.6608571835473196,0.0006518363952636719,1.0,2.0,-5.0,nan,nan,nan,nan,nan
8.780256032943726,1.2640326023101807,2.2981059551239014,-1.6622531414031982,1.7295350133785603,0.0005102157592773438,1.0,2.0,-5.0,nan,nan,nan,nan,nan
8.790250062942505,1.2780983448028564,2.2789549827575684,-1.6690998077392578,1.8734482090318574,0.0006000995635986328,1.0,2.0,-5.0,nan,nan,nan,nan,nan
8.800411939620972,1.285768985748291,2.2687926292419434,-1.672051191329956,1.946211218346083,0.00048542022705078125,1.0,2.0,-5.0,nan,nan,nan,nan,nan
8.810193538665771,1.2961232662200928,2.2552032470703125,-1.6730396747589111,2.017798782321,0.0004975795745849609,1.0,2.0,-5.0,nan,nan,nan,nan,nan
8.820259094238281,1.306894063949585,2.241220712661743,-1.6738343238830566,2.08808543263678,0.0005197525024414062,1.0,2.0,-5.0,nan,nan,nan,nan,nan
8.830226182937622,1.318070888519287,2.226830244064331,-1.6744263172149658,2.154724602583662,0.0005483627319335938,1.0,2.0,-5.0,nan,nan,nan,nan,nan
8.840235948562622,1.3415858745574951,2.1967649459838867,-1.6750843524932861,2.274589395310616,0.0005826950073242188,1.0,2.0,-5.0,nan,nan,nan,nan,nan
8.850186347961426,1.353888988494873,2.181062698364258,-1.675189733505249,2.327180068465687,0.0005626678466796875,1.0,2.0,-5.0,nan,nan,nan,nan,nan
8.860209941864014,1.366527795791626,2.164898157119751,-1.6751692295074463,2.3747787008709267,0.0006072521209716797,1.0,2.0,-5.0,nan,nan,nan,nan,nan
8.870288372039795,1.3794798851013184,2.148271322250366,-1.6750335693359375,2.4175355528153446,0.0007493495941162109,1.0,2.0,-5.0,nan,nan,nan,nan,nan
8.88018274307251,1.4061787128448486,2.113610029220581,-1.674482822418213,2.489461911876047,0.00046753883361816406,1.0,2.0,-5.0,nan,nan,nan,nan,nan
8.890252828598022,1.4198582172393799,2.0955848693847656,-1.6740303039550781,2.519182611503446,0.0005223751068115234,1.0,2.0,-5.0,nan,nan,nan,nan,nan
8.900530338287354,1.4337141513824463,2.077104330062866,-1.6734514236450195,2.545177540757692,0.0005910396575927734,1.0,2.0,-5.0,nan,nan,nan,nan,nan
8.910228252410889,1.447716474533081,2.058173656463623,-1.6727402210235596,2.5677899885458064,0.0007174015045166016,1.0,2.0,-5.0,nan,nan,nan,nan,nan
